,Unnamed: 0,Unnamed: 0.1,address_line1,address_line2,area,city,constructed_area,district_code,latitude,longitude,name,pin_code,website,has_department_regular_courses,has_faculty_regular_courses,has_fellowships,has_other_minority_data,has_other_regular_courses,is_accredited,is_foreign_students_enrolled,no_of_student_hostel,offers_distance_programme,offers_loan,offers_scholarship,specialized,state_code,student_hostel_available,year_of_establishment,college_building,library,laboratory,playground,ranking,student_count,teacher_count,stu_is_tech_ratio
0,0,700,Indian Institute of Technology Bombay,Powai,489.19,Mumbai,589450.0,519,19.13343,72.91326,"Indian Institute of Technology, Mumbai",400076,www.iitb.ac.in,0,1,1,0,0,0,1,21,0,0,1,1,27,1,1958.0,1,1,1,1,1,3735,395,9
1,1,503,Hauz Khas,,312.51,New Delhi,194410.0,98,,,"Indian Institute of Technology, Delhi",110016,www.iitd.ac.in,1,0,1,0,0,0,1,16,0,0,1,1,7,1,1961.0,1,1,1,1,2,2351,415,5
2,2,457,IIT Madras Campus,,611.332,Chennai,776034.0,603,13.40361,80.84575,"Indian Institute of Technology, Chennai",600036,www.iitm.ac.in,0,1,0,0,0,0,1,18,0,0,1,1,33,1,1959.0,1,1,1,1,3,4206,261,16
3,3,353,Kharagpur,721302,2200.0,Kharagpur,599478.0,344,22.330201,87.323701,"Indian Institute of Technology, Kaharagpur",721302,www.iitkgp.ac.in,1,0,0,0,0,0,1,24,1,0,1,1,19,1,1951.0,1,1,1,1,4,3963,438,9
4,4,332,IIT Campus,"Roorkee, Uttarakhand-247667",365.0,Roorkee,394741.0,68,29.860324,77.893305,"Indian Institute of Technology, Roorkee",247667,www.iitr.ac.in,1,0,0,0,0,0,1,19,0,0,0,1,5,1,1847.0,1,1,1,1,5,1697,265,6
5,5,15,"INDIAN INSTITUTE OF TECHNOLOGY, KANPUR",,960.0,KANPUR,,164,,,"Indian Institute of Technology, Kanpur",208016,www.iitk.ac.in,1,0,0,0,0,0,0,12,0,0,0,1,9,1,1959.0,1,1,1,1,6,3087,378,8
6,6,707,Indian Institute of Technology Guwahati,Guwahati - 781039,700.0,Guwahati,2832800.0,321,26.18722,91.69167,"Indian Institute of Technology, Guwahati",781039,"www.iitg.ernet.in, www.iitg.ac.in",1,0,1,0,0,0,1,13,0,0,1,1,18,1,1994.0,1,1,1,1,7,2609,312,8
7,7,29,Opp. Supreme Court of India,Bhagwan Dass Road,1.2,New Delhi - 110001,7000.0,94,,,"Indian Law Institute, Bhagwandas Road, New Delhi",110001,www.ili.ac.in,0,1,0,0,0,0,0,0,0,0,1,1,7,0,1956.0,1,1,1,1,8,2063,366,5
8,8,63,Indian Institute of Technology Ropar,"Nangal Road, Rupnagar, Punjab-140001",22.0,Rupnagar,24850.0,51,,,"Indian Institute of Technology, Ropar",140001,www.iitrpr.ac.in,1,0,0,0,0,0,0,6,0,0,0,1,3,1,2008.0,1,1,1,1,9,4043,385,10
9,9,72,Mohanpur,Mohanpur 741 246,201.0,,117000.0,336,22.96381,88.52461,"Indian Institute of Science Education & Research (IISER), Kolkata,",741246,www.iiserkol.ac.in,0,1,1,1,0,0,0,3,0,0,0,0,19,1,2006.0,1,1,1,1,10,2927,241,12
10,10,102,Samantapuri,Pin: 751013,936.0,Bhubaneswar,112104.0,386,,,"Indian Institute of Technology, Bhubaneshwar",751013,www.iitbbs.ac.in,1,0,0,1,0,0,0,3,0,0,1,0,21,1,2008.0,1,1,1,1,11,1649,404,4
11,11,139,Bhopal Bypass Road,Bhauri,200.0,Bhopal,54000.0,444,23.2853924,77.27545727,"Indian Institute of Science Education & Research (IISER), Bhopal",462066,www.iiserb.ac.in,0,1,1,1,0,0,0,6,0,0,1,0,23,1,2008.0,1,1,1,1,12,3594,433,8
12,12,149,"IISER Campus, Next to National Chemical Laboratory","Dr. Homi Bhabha Road, Pashan",98.0,Pune,117000.0,521,18.544009600000006,73.80816999999998,"Indian Institute of Science Education & Research (IISER), Pune,",411008,www.iiserpune.ac.in,0,1,1,0,0,0,0,2,0,0,1,0,27,1,2006.0,1,1,1,1,13,1659,437,3
13,13,271,"VGEC Campus, Visat Gandhinagar Highway",Chandkheda,402.0,Ahmedabad - 382424,133168.0,474,23.21048,72.68670999999998,"Indian Institute of Technology, Gandhinagar",382424,www.iitgn.ac.in,0,1,1,0,0,0,1,6,0,0,1,1,24,1,2008.0,1,1,1,1,14,4043,284,14
14,14,287,"Sector 81, Knowledge City",P.O. Manauli 140306,125.0,S. A. S. Nagar,,52,,,"Indian Institute of Science Education & Research (IISER), Mohali",140306,www.iisermohali.ac.in,1,0,0,1,0,0,0,4,0,0,0,1,3,1,2007.0,1,1,1,1,15,3836,368,10
15,15,298,"B-21, Qutub Institutional Area",,4.58,New Delhi,23622.14,94,,,"Indian Institute of Foreign Trade, Delhi",110016,www.iift.edu,0,1,0,1,0,1,1,4,0,0,1,1,7,1,1963.0,1,1,1,1,16,3707,245,15
16,16,318,Simrol,Khandwa Road,501.42,Indore - 452 020,92000.0,439,22.7195687,75.8577258,"Indian Institute of Technology, Indore",452020,www.iiti.ac.in,0,1,1,0,0,0,0,2,0,0,1,1,23,1,2009.0,1,1,1,1,17,3593,302,11
17,17,333,Valiamala PO,Nedumangad Municipality,120.0,Thiruvananthapuram,49828.19,601,8.63001,77.03001,"Indian Institute of Space Science and Technology, Thiruvananthapuram",695547,www.iist.ac.in,1,0,1,0,0,1,0,11,0,0,0,1,32,1,2007.0,1,1,1,1,18,3119,280,11
18,18,342,203 Barrackpore Trunk Road,Baranagar,34.18,Kolkata,64901.0,337,22.60001,88.30001,"Indian Statistical Institute, Kolkata",700108,www.isical.ac.in,0,1,1,0,0,0,1,11,0,0,1,1,19,1,1931.0,1,1,1,1,19,4119,312,13
19,19,343,"Computer Science Building, CET Campus",Engineering College PO,250.0,Thiruvananthapuram,17086.62,601,,,"Indian Institute of Science Education & Research (IISER), Thiruvananthapuram",695016,http://www.iisertvm.ac.in,0,1,1,1,0,0,0,19,0,0,1,1,32,1,2008.0,1,1,1,1,20,2844,328,8
20,20,369,Melakkottaiyur,Off Vandalur- Kelambakkam  Road,51.75,Chennai-600127,48032.0,604,12.830001,80.13000100000002,"Indian Institute of Information Technology, Design & Manufacturing, Kancheepuram",600127,www.iiitdm.ac.in,0,1,1,1,0,0,1,4,0,0,1,1,33,1,2007.0,1,1,1,1,21,3489,288,12
21,21,399,Indian Institute of Science,Bangalore,440.0,Bangalore,,572,13.02186,77.567142,"Indian Institute of Science, Bangalore",560012,http://www.iisc.ernet.in,1,0,1,0,1,0,1,15,0,0,1,0,29,1,1909.0,1,1,1,1,22,2930,340,8
22,22,450,Indian Veterinary Research Institute,,758.29,Izatnagar,37593.0,150,28.250001,79.410001,"Indian Veterinary Research Institute, Izatnagar",243122,www.ivri.nic.in,1,0,0,0,1,0,0,6,0,0,1,1,9,1,1889.0,1,1,1,1,23,3044,264,11
23,23,480,VPO - Kamand,Tehsil - Padhar,510.0,Mandi,15506.0,27,31.7771805,76.9887876,"Indian Institute of Technology, Mandi",175005,www.iitmandi.ac.in,0,1,0,0,0,0,0,7,0,0,1,0,2,1,2009.0,1,1,1,1,24,3671,243,15
24,24,554,"IIITA ,Deoghat Jhalwa",U.P.,100.0,Allahabad,169578.15,175,25.11111,82.11111,"Indian Institute of Information Technology, Allahabad",211012,www.iiita.ac.in,0,1,0,1,0,0,1,8,0,0,1,1,9,1,1999.0,1,1,1,1,25,3749,369,10
25,25,572,IIT Jodhpur,Old Residency Road,851.0,Jodhpur,0.0,113,26.28081,73.06081,"Indian Institute of Technology, Jodhpur",324011,www.iitj.ac.in,0,1,1,0,1,0,0,2,0,0,1,0,8,1,2008.0,1,1,1,1,26,4161,387,10
26,26,581,"Kanpa Road, Bihta",,500.0,Patna,116815.4,230,,,"Indian Institute of Technology, Patna",801103,http://www.iitp.ac.in,1,0,1,1,0,0,0,2,0,0,1,0,10,1,2008.0,1,1,1,1,27,3337,402,8
27,27,633,Pusa,,,New Delhi,738398.85,94,,,Indian Agricultural Research Institute (KRISHI PUSHA) New Delhi.,110012,www.iari.res.in,0,1,1,0,0,1,1,9,0,0,0,1,7,1,1905.0,1,1,1,1,28,3797,371,10
28,28,750,Dhanbad-826004,"Jharkhand, India",208.0,Dhanbad,151663.65,354,,,"Indian School of Mines, Dhanbad",826004,http://www.ismdhanbad.ac.in,1,0,1,0,1,0,1,8,0,0,1,1,20,1,1926.0,1,1,1,1,29,1982,434,4
29,29,0,DUMKA,,109.0,DUMKA,,362,,,"Sido Kanhu Murmu University, Dumka",814110,www.skmu.org.in,0,1,0,1,0,0,0,0,0,0,0,0,20,0,1992.0,1,1,1,1,30,1668,19,87
30,30,1,Shahmeena Road,Chowk,,Lucknow - 226003,,157,,,KING GEORGE MEDICAL UNIVERSITY,226003,www.kgmcindia.edu,1,1,0,1,0,0,0,18,0,0,1,0,9,1,1905.0,1,1,1,1,31,2034,31,65
31,31,2,Rajbati,,316.3123,BURDWAN,85000.0,335,23.150001,87.580001,"Burdwan University, Burdwan",713104,www.buruniv.ac.in,1,0,0,1,0,1,0,11,1,0,0,0,19,1,1960.0,1,1,1,1,32,2163,52,41
32,32,3,Krishinagar,Basmat Road,9652.0,Parbhani,500000.0,513,17.01235,70.15263,"Marathwada Agricultural University, Parbhani",431402,www.mkv.ac.in,0,1,0,0,0,0,1,0,0,0,0,1,27,0,1972.0,1,1,1,1,33,1351,23,58
33,33,4,Barnala Road,,213.412,Sirsa,84805.45,79,29.324699,75.23934,"Ch. Devi Lal University, Sirsa",125055,www.cdlu.ac.in,1,0,1,0,0,1,0,4,1,0,1,0,6,1,2003.0,1,1,1,1,34,1541,69,22
34,34,5,I.E.T CAMPUS,SITAPUR  ROAD,37.0,LUCKNOW,,157,,,"Uttar Pradesh Technical University, Lucknow",226021,www.uptu.ac.in,0,0,0,0,0,0,0,0,0,0,0,1,9,0,2000.0,1,1,1,1,35,2848,62,45
35,35,6,Maidan Garhi,,151.32,New Delhi,,98,,,Indira Gandhi National Open University,110068,www.ignou.ac.in,0,1,0,0,0,0,0,0,1,0,0,0,7,0,1985.0,1,1,1,1,36,713,37,19
36,36,7,"National Dairy Research Institute, Karnal (Haryana)",,734.04,Karnal,178920.0,74,29.430001,77.200001,"National Dairy  Research Institute, Karnal",132001,ndri.res.in,0,1,0,0,0,1,1,7,0,0,1,1,6,1,1955.0,1,1,1,1,37,2591,18,143
37,37,8,Karoor,Valavoor P. O,53.523,Pala,,597,,,"INDIAN INSTITUTE OF INFORMATION TECHNOLOGY, KOTTAYAM",686518,www.iiitkottayam.ac.in,0,1,0,0,0,0,0,2,0,0,1,1,32,1,2015.0,1,1,1,1,38,2997,65,46
38,38,9,Jalandhar - Delhi G.T. Road.,,100.0,Phagwara,297727.0,36,31.252871000000006,75.70369699999998,"Lovely Professional University, Jullunder",144411,www.lpu.in,0,1,1,0,0,1,1,14,1,0,1,0,3,1,2005.0,1,1,1,1,39,2340,62,37
39,39,10,Etcherla,Srikakualam,200.0,Srikakulam,,542,,,"Dr.B.R.Ambedkar University, Etcherla",532410,www.brau.in,0,1,0,0,0,0,0,2,0,0,0,0,28,1,1972.0,1,1,1,1,40,1303,26,50
40,40,11,Gaya Dobhi Road,Bodh Gaya,621.0,,80000.0,236,,,"Magadh University, Bodh Gaya",824234,www.magadhuniversity.ac.in,1,0,0,0,0,1,1,8,0,0,0,0,10,1,1962.0,1,1,1,1,41,1472,60,24
41,41,12,45th KM,NH - 209,300.0,Kanakapura,32.0,584,,,"Jain university,Bangalore",562112,www.jainuniversity.ac.in,0,1,0,0,0,1,1,4,0,0,0,0,29,1,1990.0,1,1,1,1,42,1961,59,33
42,42,13,rajgir,,450.0,Rajgir,1635.0,229,25.02611,85.41333,NALANDA UNIVERSITY,803116,naladauniv.edu.in,0,1,0,0,0,0,1,1,0,0,0,0,10,1,2010.0,1,1,1,1,43,2416,18,134
43,43,14,RIICO Institutional Area,Sitapura,34.84624,Jaipur,132803.5,110,26.4877643,75.2034173,"MAHATMA GANDHI UNIVERSITY OF MEDICAL SCIENCES AND TECHNOLOGY, JAIPUR",302022,www.mgumst.org,1,1,0,1,0,0,1,9,0,0,0,1,8,1,2011.0,1,1,1,1,44,2721,19,143
44,44,16,Mawkynroh - Umshing,,1025.0,Shillong,178774.0,298,25.57193,91.77175,"North Eastern Hill University, Shillong",793022,www.nehu.ac.in,1,0,1,0,0,1,1,22,1,0,0,0,17,1,1973.0,1,1,1,1,45,912,38,24
45,45,17,Sikar Road,Ajmer,,Ajmer,47826.0,119,,,"Bhagwant University,  Ajmer",305004,www.bhagwantuniversity.com,0,1,0,0,0,0,1,2,0,0,1,0,8,1,2008.0,1,1,1,1,46,2817,17,165
46,46,18,AIRPORT BYPASS ROAD,GANDHI NAGAR,55.0,BHOPAL,294720.76,444,,,RKDF UNIVERSITY,462033,www.rkdf.ac.in,0,1,0,0,0,0,0,4,0,0,1,0,23,1,2011.0,1,1,1,1,47,1760,64,27
47,47,19,"86/1 College Street, Kolkata -73",,14.9,Kolkata,,342,,,Presidency University,700073,www.presiuniv.ac.in,1,0,0,0,0,0,0,2,0,0,0,0,19,1,1817.0,1,1,1,1,48,2772,58,47
48,48,20,PANBAZAR,,,GUWAHATI,,322,26.1109473,91.4454287,COTTON COLLEGE STATE UNIVERSITY,781001,www.ccsu.ac.in,0,1,0,0,0,0,0,4,0,1,1,0,18,1,2011.0,1,1,1,1,49,2303,28,82
49,49,21,New Campus,,,,,130,,,"Mohan Lal Sukhadia University, Uaipur",313031,www.mlsu.org,1,1,0,1,0,1,0,7,0,0,0,0,8,1,1962.0,1,1,1,1,50,2838,61,46
50,50,22,"DD-26,Sector-I,Salt Lake City",,,Kolkata,,342,,,"Netaji Subhash Open University, Kolkata",700064,www.wbnsou.ac.in,0,0,0,0,0,0,0,0,1,0,0,0,19,0,1997.0,1,1,1,1,51,2495,35,71
51,51,23,"Nirma University, S. G. Highway","Ahmedabad, Gujarat, PIN-382481",110.0,Ahmedabad,131141.31,474,,,"Nirma University, Ahmedabad",382481,www.nirmauni.ac.in,0,0,0,0,0,1,0,3,0,0,0,0,24,1,1995.0,1,1,1,1,52,878,29,30
52,52,24,"Sy.No.71/1, NH-5",Nidamunuru,2.24,Vijayawada,5941.0,547,16.000001,80.0000001,School of Planning & Architecture Vijaywada,521104,spav.ac.in,0,1,0,0,0,0,0,5,0,1,1,1,28,1,2008.0,1,1,1,1,53,751,38,19
53,53,25,"NH-67, TRICHY-THANJAVUR HIGHWAYS",VALLAM,46.87,THANJAVUR,102285.3958,620,10.720001,79.08001,"Ponnaiyah Ramajayam Institute of Science & Technology, Thanjavur",613403,www.prist.ac.in,0,1,0,1,0,1,1,3,0,1,1,0,33,1,1994.0,1,1,1,1,54,2189,52,42
54,54,26,Kalyanpur,,256.0,Kanpur Nagar,40000.0,164,26.498301,80.265801,"Chatrapati Sahuji Maharaj Kanpur University, Kanpur",208014,www.kanpuruniversity.org,0,1,0,0,0,1,0,5,0,0,0,0,9,1,1967.0,1,1,1,1,55,614,27,22
55,55,27,Sardar Patel Hall Complex,Unit-II,50.0,Bhubaneswar,15821.0,386,,,"Utkal University of Culture, Bhubaneswar",751009,www.uuc.ac.in,0,1,0,0,0,0,0,2,0,0,1,1,21,1,1999.0,1,1,1,1,56,1805,74,24
56,56,28,"Awadesh Pratap Singh University, Rewa","Awadesh Pratap Singh University, Rewa",246.2,REWA,36833.0,430,24.00001,75.00001,"Awadesh Pratap Singh University, Rewa",486003,www.apsurewa.ac.in,0,1,1,0,0,1,0,2,0,0,1,0,23,1,1968.0,1,1,1,1,57,2832,34,83
57,57,30,AES BUNGLOW 3,"COMMERCE SIX ROADS, NAVANGPURA",23.0,AHMEDABAD,22000.0,474,23.036406,72.561006,Ahmedabad University,380009,www.ahduni.edu.in,0,0,0,0,0,1,0,3,0,0,0,0,24,1,2009.0,1,1,1,1,58,449,69,6
58,58,31,"Vemanapuram, Kadapa-516 003","Vemanapuram, Kadapa-516 003",625.0,Kadapa,274320.0,551,14.00001,78.00001,"Yogi Vemana University, Kadapa",516003,www.yogivemanauniversity.ac.in,0,1,0,0,0,0,0,8,0,0,0,0,28,1,2006.0,1,1,1,1,59,1804,58,31
59,59,32,"Navsari Agricultural University,","Eru Char Rasta,  At & Po Eru  Ta- Jalalpore",2278.47,Navsari  396 450,468.37,490,20.230001,72.22000200000002,Navsari Agricultural University,396450,www.nau.in,0,0,0,0,0,0,0,0,0,0,0,1,24,0,2004.0,1,1,1,1,60,783,31,25
60,60,33,"846 Shivajinagar, BMCC Road",Deccan Gymkhana,13.3,Pune,22108.34,521,18.519466,73.836648,"Gokhale Institute of Politics & Economics, Pune",411004,www.gipe.ac.in,1,0,1,1,0,0,0,2,0,1,1,1,27,1,1930.0,1,1,1,1,61,2778,23,120
61,61,34,"Old High Court Campus, Near Gandhi Chowk",BILASPUR-495001 (C.G.),68.0,BILASPUR,50000.0,406,22.076432,82.16489200000002,BILASPUR VISHWAVIDYALAYA,495001,http://www.bilaspuruniversity.ac.in,1,0,0,1,0,0,0,1,0,0,1,0,22,1,2012.0,1,1,1,1,62,1076,44,24
62,62,35,Kendradangal,"Shantineketan, PS - Panrui, PO - Sattore",10.89,SHANTINEKETAN,9375.0,334,23.91671,87.533333,SEACOM SKILLS UNIVERSITY,731236,www.seacomskillsuniversity.org,0,1,0,0,0,0,0,2,0,0,1,0,19,1,2014.0,1,1,1,1,63,777,65,11
63,63,36,Lala Lajpat Rai University of Veterinary and Animal Sciences,Post Office HAU,300.0,Hisar,,80,29.100001,75.460001,Lala lajpat Rai University of Veterinary and Animal Sciences,125004,www.luvas.edu.in,0,1,1,0,0,0,1,5,0,0,1,1,6,1,2010.0,1,1,1,1,64,1092,24,45
64,64,37,Bidyadharpur Arilo,Ward No.3,185.97,Cuttack,10315.0,381,20.462521,85.882989,SRI SRI UNIVERSITY,754006,www.srisriuniversity.edu.in,0,1,0,0,0,0,1,5,0,0,1,0,21,1,2009.0,1,1,1,1,65,2658,28,94
65,65,38,"""Jyotirmay Parisar"", Opp. Shri Balaji Temple,","Sarkhej-Gandhinagar Highway, Chharodi,",20.0,Ahmedabad - 382481,12535.0,474,23.122186,72.542296,"Dr. Babasaheb Ambedkar Open University, Ahmedabad",382481,http://www.baou.edu.in/,0,0,0,0,0,1,0,0,1,0,0,0,24,0,1994.0,1,1,1,1,66,2046,66,31
66,66,39,"Rajendra Bhuvan Road,","Near Birla Temple,",17.37,Veraval - 362266,2665.0,479,20.53001,73.26001,"Shree Somnath Sanskrit University, Junagarh",362266,www.shreesomnathsanskrituniversity.info,0,1,0,0,1,0,0,2,0,0,1,1,24,1,2005.0,1,1,1,1,67,1074,57,18
67,67,40,"Sector-30, Gandhinagar",Gujarat. Pin - 382030,,Gandhinagar,,473,,,"Central Univeristy of Gujarat, Gandhinagar",382030,www.cug.ac.in,1,1,0,0,0,0,1,7,0,0,0,0,24,1,2009.0,1,1,1,1,68,264,25,10
68,68,41,mundra road,Bhuj,205.0,Bhuj,3569.74,468,,,"Krantiguru Shyamji Krishna Verma Kachchh University, Kachchh",370001,kskvku.digitaluniversity.ac,1,1,0,0,0,0,0,2,0,0,1,0,24,1,2004.0,1,1,1,1,69,2416,44,54
69,69,42,Sardar Patel Road,,311.95,Chennai,216349.0,603,13.00106,,"Anna University, Chennai",600025,www.annauniv.edu,0,0,0,0,1,1,0,0,1,0,0,1,33,0,1978.0,1,1,1,1,70,904,74,12
70,70,43,"University Road, Patan",,85.79,Patan,54070.0,470,,,"Hemchandracharya North Gujart University, Patan",384265,www.ngu.ac.in,1,0,1,0,0,1,0,6,0,0,1,0,24,1,1986.0,1,1,1,1,71,649,54,12
71,71,44,"NH - 6, Raipur Bhilai Road","Km Stone 20, PO Kumhari",30.43,Durg,6500.0,409,21.00001,81.00001,ICFAI UNIVERSITY,490042,www.iuraipur.edu.in,0,1,0,0,0,0,0,0,0,1,1,0,22,0,2011.0,1,1,1,1,72,1070,65,16
72,72,45,"Lotus view, Near Balaji Temple, Opposite Nirma University,","SG highway, Chharodi",160.0,Ahmedabad,139252.0,474,23.000120000000006,72.00031,"LAKULISH YOGA UNIVERSITY, AHMEDABAD",382481,lyu.ac.in,0,1,0,0,0,0,1,9,0,0,0,1,24,1,2013.0,1,1,1,1,73,2368,44,53
73,73,46,Dhanvantari Nagar,,,Puducherry,,635,,,"Jawaharlal Institute of Post Graduate Medical Education & Research, Puducherry",605006,www.jipmer.edu.in,0,1,0,0,0,0,0,11,0,0,0,1,34,1,1823.0,1,1,1,1,74,1367,37,36
74,74,47,"4th T Block, Jayanagar",,1.7,Bangalore,5996.0,572,12.9715987,77.5945627,"Rajiv Gandhi University of Health Sciences, Bangalore",560041,www.rguhs.ac.in,0,1,0,0,0,0,0,0,0,0,0,1,29,0,1994.0,1,1,1,1,75,2144,51,42
75,75,48,CHARUSAT Campus,,110.0,Changa - 388421,100000.0,482,22.5960331,72.80723420000002,"Charotar University of Science & Technology,  Anand",388421,www.charusat.ac.in,0,0,0,0,0,0,0,4,0,0,0,0,24,1,2000.0,1,1,1,1,76,1970,18,109
76,76,49,"MIDC Road, Complex, Gadchiroli","MIDC Road, Complex, Gadchiroli",10.0,Gadchiroli,2965.52,508,20.280001,79.580001,"GONDWANA UNIVERSITY, GADCHIROLI",442605,www.unigug.org,0,1,0,1,0,0,0,0,0,0,1,0,27,0,2011.0,1,1,1,1,77,2198,46,47
77,77,50,Greenwud,"Near Vaishno Devi Circle, Sardar Patel Ring Road",3.85,Ognaj,3746.5,474,23.080549,72.303294,"Carlox Teacher's University, Ahmedabad",382481,www.ctu.calorx.org,0,1,0,0,0,0,0,1,0,0,1,0,24,1,2009.0,1,1,1,1,78,2942,42,70
78,78,51,Near Directorate of Forensic Science,Sector 9,12.355,Gandhinagar,29775.0,473,23.21295,72.66077,Gujarat Forensic Sciences University,382007,www.gfsu.edu.in,0,1,1,1,0,1,0,2,0,0,1,1,24,1,2009.0,1,1,1,1,79,2748,16,171
79,79,52,Dargamitta,Nellore,,Nellore,,550,,,"Vikram Simhapuri University, Nellore",524003,simhapuriuniv.ac.in,1,0,0,0,0,0,0,2,0,0,0,0,28,1,,1,1,1,1,80,2375,24,98
80,80,53,"9 Km. Milestone, NH-65",Ambala Road,21.8,Kaithal,13202.0,73,,,NIILM UNIVERSITY,136027,www.niilmuniversity.in,0,1,0,0,0,0,0,2,0,0,0,0,6,1,2011.0,1,1,1,1,81,2638,38,69
81,81,54,Subhash Chandra Bose Education Campus,Sector-20,8.25,Gandhinagar - 382020,3090.0,473,23.00001,72.00001,"Children University, Gandhinagar",382020,www.cugujarat.ac.in,1,1,0,0,1,0,0,0,0,0,0,0,24,0,2009.0,1,1,1,1,82,2351,45,52
82,82,55,"37 & 68 Kshudiram Bose Sarani, Kolkata, Pin-700037",,84.536,Kolkata,342105.0,342,22.607604,88.388357,"West Bengal University of Animal and Fishery Sciences, Kolkata",700037,www.wbuafscl.ac.in,0,1,1,1,0,0,0,9,0,0,1,1,19,1,1995.0,1,1,1,1,83,2641,73,36
83,83,56,"Ch. Bansi Lal University,","Hansi Road,",131.0,Bhiwani,11000.0,81,28.78001,76.13001,CHAUDHARY BANSI LAL UNIVERSITY,127021,www.cblu.ac.in,0,1,0,0,0,0,0,0,0,0,1,0,6,0,2014.0,1,1,1,1,84,2352,35,67
84,84,57,"Anand Agricultural University, Anand.","Khetiwadi, Taluka-Anand, Dist - Anand Pin - 38801",1765.0,Anand,1075100.0,482,,,"Anand Agricultural University, Anand",388001,www.aau.in,0,0,0,0,0,1,0,0,0,0,0,1,24,0,2004.0,1,1,1,1,85,2659,60,44
85,85,58,"Sri Chamarajendra Samskrit College Campus,","Pampamahakavi Road, Chamarajpet,",100.0,Bangalore - 560 018,0.0,572,7.493196000000001,80.332031,Karnataka Sanskrit University,560018,www.ksu.ac.in,0,1,0,0,1,0,0,0,0,0,0,1,29,0,2010.0,1,1,1,1,86,1338,72,18
86,86,59,"Kuvempu University, Jnana Sahyadri",Shankaraghatta,330.0,Shankaraghatta,224228.95,568,13.7359823,75.6324041,"Kuvempu University, Shankaraghatta, Shimoga",577451,www.kuvempu.ac.in,0,1,0,1,0,0,0,6,0,0,0,0,29,1,1987.0,1,1,1,1,87,1685,19,88
87,87,60,Polytechnic Compound,Gadukpur,,Godhra,,484,,,SHRI GOVIND GURU UNIVERSITY,389001,,0,0,0,0,0,0,0,0,0,0,0,0,24,0,2015.0,1,1,1,1,88,578,68,8
88,88,61,C/o.Bauddin Arts College Campus,Opp.Bhutnath Temple road,,Junagadh,,479,,,BHAKTA KAVI NARSINH MEHTA UNIVERSITY,362001,,0,0,0,0,0,0,0,0,0,0,0,0,24,0,2015.0,1,1,1,1,89,2090,57,36
89,89,62,Agartala-Simna Road,"Kamalghat, Mohanpur",32.53,Agartala,58000.0,289,22.560001,91.090001,"The Institute of Chartered Financial Analysts of India University, Agartala",799210,www.iutripura.edu.in,1,0,0,0,0,1,1,2,0,0,1,0,16,1,2004.0,1,1,1,1,90,2345,70,33
90,90,64,"Chanakya National Law University Campus,","Near Mithapur Bus Stand,",,Patna-800 001,,230,25.591228,85.140158,"Aryabhatta Knoweledge University , Patna",800001,www.akubihar.ac.in,0,1,0,0,0,0,0,0,0,0,0,0,10,0,2010.0,1,1,1,1,91,2826,15,188
91,91,65,"VYASA VIHAR,NUAPADHI,BALASORE 756020",,,,,377,21.491301,86.93181,"Fakir Mohan University, Balasore",756020,www.fmuniversity.nic.in,0,1,0,0,0,0,0,2,1,0,0,0,21,1,1999.0,1,1,1,1,92,2205,31,71
92,92,66,Shivagangothri,,72.35,Davangere,15000.0,567,14.23001,75.57001,"Davangere University, Davangere",577002,www.davangereuniversity.ac.in,1,0,1,0,0,0,0,6,0,0,1,0,29,1,1979.0,1,1,1,1,93,2483,61,40
93,93,67,Knowledge III,Plot no. 32-34,63.0,Greater Noida,,141,,,"Sharda University, Gautam Budh Nagar",201308,www.sharda.ac.in,0,1,0,1,0,0,1,9,0,0,1,0,9,1,2005.0,1,1,1,1,94,758,73,10
94,94,68,"Yenepoya University, Mangalore",,31.24,Mangalore,87401.55,575,,,"Yenepoya University, Mangalore",575018,www.yenepoya.edu.in,0,1,0,1,0,0,0,7,0,0,1,0,29,1,1992.0,1,1,1,1,95,838,54,15
95,95,69,Government Commerce College Campus,Opposite Youth Hostel,4.0,Gandhinagar,,473,23.135525,72.381833,SWARNIM GUJARAT SPORTS UNIVERSITY,382016,www.sgsu.edu.in,1,0,0,0,0,0,0,1,0,0,0,1,24,1,2011.0,1,1,1,1,96,2083,20,104
96,96,70,GLS Campus,"Opp Law Garden, Ellisbridge",,Ahmedabad,,474,23.100001,72.370001,GLS UNIVERSITY,380006,www.glsuniversity.ac.in,0,1,0,0,0,0,0,0,0,0,0,0,24,0,2015.0,1,1,1,1,97,980,30,32
97,97,71,Ganpat Vidyanagar,"Mehsana-Gozariya Highway, Kherva-382711, Ta.& Dist. Mehsana",272.28,Kherva,162369.78,471,23.144439,72.585989,"Ganpat University, Ganpat Vidyanagar, Kherva",384012,www.ganpatuniversity.ac.in,1,0,0,0,0,0,0,7,0,0,0,0,24,1,1996.0,1,1,1,1,98,1322,58,22
98,98,73,Near Indroda Circle,,50.0,Gandhinagar,45000.0,473,23.18843,72.62788,"Dhirubhai Ambani Institute of Information & Communication Technology, Gandhi Nagar",382007,www.daiict.ac.in,0,1,1,0,0,0,1,2,0,0,1,1,24,1,2001.0,1,1,1,1,99,1676,64,26
99,99,74,New Mental Corner,Meghaninagar,2.293,Ahmedabad,2500.0,474,23.052981,72.610198,"Rakshashakti University, Gujarat",380016,www.rsu.ac.in,0,0,1,1,1,0,0,4,0,1,1,1,24,1,2009.0,1,1,1,1,100,1885,52,36
100,100,75,NEAR KHOKHARA CIRCLE,MANINAGAR EAST,5.0,AHMEDABAD,30674.0,474,23.008885,72.628738,INSTITUTE OF INFRASTRUCTURE TECHNOLOGY RESEARCH AND MANAGEMENT (IITRAM),380026,www.iitram.ac.in,0,1,0,1,0,0,0,2,0,0,1,0,24,1,2013.0,1,1,1,1,101,2976,30,99
101,101,76,Post- Hindi Vishwavidyalaya,Gandhi Hills,211.5,Wardha,94635.0,504,20.745444,78.601352,"Mahatama Gandhi Antarrashtriya Hindi Vishwavidyalaya, Wardha",442001,www.hindivishwa.org,1,0,1,1,0,1,1,5,1,0,1,1,27,1,1997.0,1,1,1,1,102,2850,28,101
102,102,77,"Plot No. 3, Chandranagar Soceity",Motipura,2699.0,Himatnagar,2935.0,473,23.584795,72.954487,"KAMDHENU UNIVERSITY, GANDHINAGAR",383001,,0,1,0,0,0,0,0,1,0,0,1,1,24,1,2015.0,1,1,1,1,103,2119,26,81
103,103,78,"135, East Coast Road",Kanathur,11.08,Chennai,46509.72,604,37.98723,97.97849,"Academy of Maritime Education and Training, Chennai",603112,www.ametuniv.ac.in,1,0,1,1,0,1,1,13,0,1,1,1,33,1,1993.0,1,1,1,1,104,1735,74,23
104,104,79,"EarthSpace,","Opp. ONGC, Hazira Road,",20.0,Surat,15514.0,492,21.17001,72.83001,AURO UNIVERSITY OF HOSPITALITY AND MANAGEMENT,394510,www.aurouniversity.edu.in,0,1,0,1,0,0,0,2,0,0,1,0,24,1,2011.0,1,1,1,1,105,1446,26,55
105,105,80,"VILLAGE: RANCHARDA,",SUB DIST: KALOL,13.05,DIST: GANDINAGAR - 382 115,36536.0,473,23.03001,72.58001,INDUS UNIVERSITY,382115,www.indusuni.ac.in,1,0,0,0,0,0,0,2,0,0,1,0,24,1,2006.0,1,1,1,1,106,507,58,8
106,106,81,"KASTUBADHAM, BHAVNAGAR HIGHWAY",TRAMBA,19.16,RAJKOT,63895.0,476,22.241902,70.901178,"R K University, Rajkot",360020,http://www.rku.ac.in,0,1,0,0,0,0,0,0,0,0,0,0,24,0,2005.0,1,1,1,1,107,1602,48,33
107,107,82,m s j college premises,,,Bharatpur,,105,,,MAHARAJA SURAJMAL BRIJ UNIVERSITY,321001,www.brijuniversity.ac.in,0,0,1,0,1,0,0,0,0,0,0,0,8,0,2012.0,1,1,1,1,108,1985,20,99
108,108,83,Bahra University,Waknaghat-173234,25.0,Waknaghat,28785.38,31,30.920001,77.120001,"Bahra University, Solan",173234,www.bahrauniversity.edu.in,0,1,0,0,0,0,0,2,0,0,1,0,2,1,2010.0,1,1,1,1,109,2005,47,42
109,109,84,N. H. - 34,POST OFFICE - MOKDUMPUR,30.51,MALDA,,332,25.00001,88.150001,"University of Gour Banga, Malda",732103,www.ugb.ac.in,0,1,0,0,0,0,0,0,0,0,0,0,19,0,2008.0,1,1,1,1,110,2266,53,42
110,110,85,"Chanakya Bhavan, Hospital Road,","Opp. City B Division Police Station,",35.0,Jamnagar,20721.66,477,22.28001,70.03001,"Gujarat Ayurveda University, Jamnagar",361008,www.ayurveduniversity.edu.in,0,1,0,0,0,0,1,6,0,0,0,1,24,1,1965.0,1,1,1,1,111,1305,17,76
111,111,86,Near Vishwakarma Government Engineering College,Nr Visat Three Roads Visat Gandhinagar Highway,23.11,Chandkheda  Ahmedabad,8577.0,474,23.11001,72.59000999999998,"Gujarat Technological University, Ahmedbabd",382424,www.gtu.ac.in,0,1,0,0,0,0,1,0,0,0,0,1,24,0,2007.0,1,1,1,1,112,1795,47,38
112,112,87,"Office of the Gujarat University,",Navrangpura,262.0,Ahmedabad,100000.0,474,23.08001,72.58001,"Gujarat University, Ahmedabad",380009,www.gujaratuniversity.org.in,1,1,0,1,0,1,1,9,0,0,1,0,24,1,1949.0,1,1,1,1,113,2545,66,38
113,113,88,"Surendranagar - Ahmedabad Highway,","Near Kothariya Village, University Road,",60.39,Wadhwan City.,67752.34,475,22.748545,71.70208000000002,"C.U.SHAH UNIVERSITY, SURENDRANAGAR",363030,www.cushahuniversity.ac.in,0,1,0,0,0,0,0,2,0,0,0,0,24,1,2013.0,1,1,1,1,114,1893,59,32
114,114,89,Chandu - Budhera,Gurgaon - Badli Road,62.0,Gurgaon,86572.47,86,28.480001,76.920001,"SHREE GURU GOBIND SINGH TRICENTENARY UNIVERSITY, GURGAON",122505,www.sgtuniversity.ac.in,0,1,0,1,0,0,0,7,0,0,0,0,6,1,2013.0,1,1,1,1,115,605,29,20
115,115,90,"GSFC University, Vigyan Bhavan",P.O Fertilizernagar GSFC,,Vadodara,3320.0,486,,,G S F C UNIVERSITY,391750,www.gsfcuni.edu.in,0,1,0,0,0,0,0,1,0,1,0,0,24,1,2014.0,1,1,1,1,116,2925,69,42
116,116,91,"Vill-Hadauri, Post-Tindola,","Lucknow-Deva Road,",52.38,Barabanki,55196.38,157,26.92716,81.19144,SHRI RAMSWAROOP MEMORIAL UNIVERSITY,225003,www.srmu.ac.in,0,1,0,1,0,0,1,2,0,0,1,0,9,1,2012.0,1,1,1,1,117,2144,26,82
117,117,92,"Vidyasangama, P.B. National Highway-4, Bhootaramanahatti, Belagavi - 591156",,168.75,Belagavi,12946.0,555,16.00535,74.505149,"Rani Channamma University, Belagavi",591156,www.rcub.ac.in,1,0,0,0,0,0,0,2,0,0,1,0,29,1,2010.0,1,1,1,1,118,2721,56,48
118,118,93,"Kanpur Road, Jhansi",Uttar Pradesh,186.11,Jhansi,,166,,,"Bundelkhand University,  Jhansi",284003,www.bujhansi.ac.in,1,0,0,0,0,1,0,7,0,0,0,0,9,1,1975.0,1,1,1,1,119,669,47,14
119,119,94,"Nr.Bhaijipura Cross Road,",Raisan,90.0,Gandhinagar,77500.0,473,,,"Pandit Deendayal Petroleum University,  Gandhi Nagar",382007,www.pdpu.ac.in,0,1,1,1,0,0,0,2,0,0,1,0,24,1,2007.0,1,1,1,1,120,547,66,8
120,120,95,"Attalika Avenue,","Knowledge Corridor, Koba",50.0,Gandhinaar,79700.0,473,23.153973,72.660999,"Gujarat National Law University, Gandhinagar",382007,www.gnlu.ac.in,0,1,0,0,0,0,1,2,0,0,1,1,24,1,2003.0,1,1,1,1,121,1012,74,13
121,121,96,"Registrar, Junagadh Agricultural University, Junagadh","Motibag, Junagadh ( Gujarat)-362 001",6768.335999999998,Junagadh,354769.5,479,21.522184,70.457876,Junagadh Agricultural University,362001,jau.in,0,0,0,1,1,1,1,28,0,0,1,1,24,1,2004.0,1,1,1,1,122,2346,20,117
122,122,97,Sardar Patel University,University Road,86.0,Vallabh Vidyanagar,164653.0,482,22.55525,72.92494,"Sardar Patel University, Vallabh Vidyanagar",388120,http://www.spuvvn.edu,1,0,1,0,0,1,0,8,0,0,1,0,24,1,1955.0,1,1,1,1,123,497,41,12
123,123,98,Jnana Ganga,Gulbarga-585 106,786.0,Gulbarga,263442.0,579,,,"Gulbarga University, Gulbarga",585106,http://www.gulbargauniversity.kar.nic.in,1,0,1,0,0,1,0,6,0,0,1,0,29,1,1971.0,1,1,1,1,124,2551,62,41
124,124,99,At and Post- piparia,Tal-Waghodia,69.0,Vadodara,202448.88,486,22.292179,73.3216528,"Sumandeep Vidyapeeth, Vadodara",391760,www.sumandeepuniversity.co.in,1,0,0,0,0,1,0,6,0,0,0,1,24,1,2007.0,1,1,1,1,125,651,27,24
125,125,100,"Santiniketan-731235, Birbhum",West Bengal,1127.3,Bolpur,,334,,,"Visva Bharati, Shantiniketan",731235,www.visva-bharati.ac.in,1,1,1,0,0,0,1,27,0,0,1,0,19,1,1921.0,1,1,1,1,126,2162,26,83
126,126,101,"Plot No 6512, Ajwa Nimete Road,","Ravaal, Taluka Waghodia,",35.04,Vadodara,155000.0,486,22.33854,73.361751,"ITM VOCATIONAL UNIVERSITY, VADODARA",391760,www.itm.ac.in,1,0,0,1,0,0,0,2,0,0,0,1,24,1,2012.0,1,1,1,1,127,1333,38,35
127,127,103,College Road,Nr. Vania Vad Circle,70.0,Nadiad,52790.0,483,22.23456,73.34204,"Dharmsinh Desai univeristy, Nadiad",387001,http://www.ddu.ac.in,1,0,0,0,0,1,0,2,0,0,1,0,24,1,1964.0,1,1,1,1,128,1027,22,46
128,128,104,Sector-D,Kanpur Road Scheme,16.18742568,Lucknow,127427.0,157,,,"Dr. Ram Manohar Lohiya National Law University, Lucknow",226012,www.rmlnlu.ac.in,0,1,0,1,0,1,0,3,0,0,1,1,9,1,2005.0,1,1,1,0,129,2932,61,48
129,129,105,Saurashtra University Campus,,410.0,Rajkot,,476,22.2930753,70.746094,"Saurashtra University, Rajkot",360005,www.saurashtrauniversity.edu,0,1,0,0,0,1,1,6,0,0,0,0,24,1,1968.0,1,1,1,0,130,2809,53,53
130,130,106,Jnanabharathi Campus,,1177.0,Bangalore,,572,12.94166,77.51666,"Bangalore University, Bangalore",560056,www.bangaloreuniversity.ac.in,1,0,0,0,0,1,1,12,1,0,1,0,29,1,1964.0,1,1,1,0,131,1457,55,26
131,131,107,"VPO Baru Sahib, Via - Rajgarh, Distt. Sirmour HP (173101)","VPO Baru Sahib, Via - Rajgarh, Distt. Sirmour HP (173101)",201.0,"Baru Sahib, Via - Rajgarh",,32,,,"Eternal University, Baru Sahib Sirmour",173101,www.eternaluniversity.edu.in,0,1,1,1,0,0,1,3,0,0,1,0,2,1,2008.0,1,1,1,0,132,1754,20,87
132,132,108,Sector 67,,129.25,Mohali,78600.0,52,30.6817316,76.7329359,"National Institute of Pharmaceutical, Educational and Research, Mohali",160062,www.niper.gov.in,1,0,1,0,0,0,0,5,0,0,1,1,3,1,1994.0,1,1,1,0,133,2025,27,75
133,133,109,SRINIVASA VANAM,KUPPAM,1100.0,KUPPAM,31530.0,554,,,"Dravidian University, Kuppam, Chittoor District",517426,www.dravidianuniversity.ac.in,1,0,1,0,0,0,0,4,1,0,1,1,28,1,1997.0,1,1,1,0,134,471,54,8
134,134,110,"Sector-06, Mathura Road",,20.0,Faridabad,25133.50256,88,28.366905,77.31633599999998,YMCA University of Science & Technology,121006,www.ymcaust.ac.in,1,0,0,1,0,0,0,6,0,0,1,1,6,1,1967.0,1,1,1,0,135,1157,32,36
135,135,111,Village - Saroda,Taluka- Dholka,23.74,Dholka,17763.11,474,22.729183,72.444484,RAI UNIVERSITY,382260,www.raiuniversity.edu,0,1,0,0,0,0,1,3,0,0,1,0,24,1,2012.0,1,1,1,0,136,2741,31,88
136,136,112,Bahadrabad,,25.0,Haridwar,4654.0,68,,,"Uttaranchal Sanskrit University, Hardwar",249402,www.usvv.ac.in,0,1,0,0,0,0,0,0,0,0,0,1,5,0,2005.0,1,1,1,0,137,661,64,10
137,137,113,"6th Mile, Sovima","Dimapur, Nagaland - 797112",11.68,Dimapur,2550.0,265,,,"The Institute of Chartered Financial Analysts of India University, Dimapur",797112,www.iunagaland.edu.in,0,1,0,0,0,0,0,0,0,0,0,0,13,0,2007.0,1,1,1,0,138,1686,35,48
138,138,114,JODHA MAL ROAD,NEAR POLICE STATION SADAR,33.0,HOSHIARPUR,2508.0,38,31.53221,75.91721,GURU RAVIDAS AYURVED UNIVERSITY,146001,graupunjab.org,0,1,0,0,0,0,0,0,0,0,0,1,3,0,2011.0,1,1,1,0,139,881,24,36
139,139,115,"10, Institutional Area",Vasant Kunj,2.0,New Delhi 110070,7962.0,98,28.54437,77.14835,"TERI School of Advanced Studies, New Delhi",110070,www.teriuniversity.ac.in,1,0,0,0,0,1,1,1,1,0,1,1,7,1,1998.0,1,1,1,0,140,2648,49,54
140,140,116,"PIXEL PARK B, PES INSTITUTE OF TECHNOLOGY CAMPUS","HOSUR ROAD, ELECTRONICS CITY",6.5,BANGALORE,11132.0,583,12.97159,77.59456,"Azim Premji University, Bangalore",560100,www.azimpremjiuniversity.edu.in,0,0,0,0,1,0,0,5,0,1,1,1,29,1,2010.0,1,1,1,0,141,408,54,7
141,141,117,University of Kalyani,P.O-Kalyani,346.47,Kalyani,48703.0,336,22.9817655,88.45006090000003,"Kalyani University, Kalyani",741235,www.klyuniv.ac.in,0,1,1,0,0,1,1,9,1,0,0,0,19,1,1960.0,1,1,1,0,142,1670,40,41
142,142,118,"Transit Campus, Pohroo Chowk, Nowgam, Srinagar - 190015",Nowgam Srinagar,503.0,Srinagar,140.0,10,34.14001,74.47001,"Central University of Kashmir, Srinagar",190015,www.cukashmir.ac.in,0,1,0,1,0,0,0,3,0,0,1,0,1,1,2009.0,1,1,1,0,143,1440,71,20
143,143,119,Anoopshahr,Anoopshahr,100.0,Anoopshahr,50750.46,142,28.33881,78.26241,"JAYPEE UNIVERSITY, ANOOPSHAHR",203390,www.jaypeeu.ac.in,0,1,0,0,0,0,0,2,0,0,1,0,9,1,2014.0,1,1,1,0,144,940,30,31
144,144,120,H1 SIPCOT IT Park,Siruseri,5.35,Kelambakkam,13462.05,603,12.835001,80.200001,"Chennai Mathematical  Institue, Chennai",603103,www.cmi.ac.in,0,1,1,0,0,0,1,1,0,0,1,1,33,1,1989.0,1,1,1,0,145,2128,18,118
145,145,121,"Vishwavidyanilya Karyalaya, BH Road","Vishwavidyanilya Karyalaya, BH Road",110.1,Tumkur,16.8,571,13.00034,77.00001,"Tumkur University, Tumkur",572103,www.tumkuruniversity.ac.in,1,1,0,1,0,1,0,0,0,0,0,0,29,0,2004.0,1,1,1,0,146,2476,71,34
146,146,122,Pondicherry Cuddalore Main Road,Pillayarkuppam Pin 607402,55.0,Pondicherry,,635,11.812422,79.778243,"Sri Balajai Vidyapeeth Mahatma Gandhi Medical College, Puducherry",607402,sbvu.ac.in,0,0,0,0,1,1,0,0,0,0,0,1,34,0,2001.0,1,1,1,0,147,1113,27,41
147,147,123,"Block 9, IIITVadodara","Government Engineering College, Sector 28",,Gandhinagar,,486,23.259101,72.65371,"INDIAN INSTITUTE OF INFORMATION TECHNOLOGY, VADODARA",382028,iiitvadodara.ac.in,0,1,0,1,0,0,0,3,0,0,0,0,24,1,2013.0,1,1,1,0,148,1862,46,40
148,148,124,N.H. 8 BYPASS,NEAR EKLINGPURA CHOURAHA,35.5,UDAIPUR,122679.63,130,23.319998,91.289998,GEETANJALI UNIVERSITY,313002,www.geetangaliuniversity.com,0,1,0,1,0,0,0,7,0,0,1,1,8,1,2012.0,1,1,1,0,149,2517,33,76
149,149,125,MAHARAJA  COLLEGE CAMPUS,PANNA ROAD,418.0,CHHATARPUR,0.0,425,,,MAHARAJA CHHATRASAL BUNDELKHAND UNIVERSITY,471001,www.mchhatrasaluniversity.com,0,0,0,0,0,0,0,0,0,0,0,0,23,0,2009.0,1,1,1,0,150,450,17,26
150,150,126,"Girinagar, Pune -25",Maharashtra,498.0,Pune,96787.0,521,18.42001,73.75001,"Defence Institute of Advanced Technology, Girinagar, Pune",411025,www.diat.ac.in,1,0,0,1,0,1,0,2,0,0,1,1,27,1,1952.0,1,1,1,0,151,284,72,3
151,151,127,"Tarsali-Vadadala Road, Tarsali Bypass","Dhaniyavi Exit, Tarsali",1.0,Vadodara,2973.0,486,22.2610789,73.2138704,TEAM LEASE SKILLS UNIVERSITY,390009,www.teamleaseuniversity.org,1,0,0,0,1,0,0,0,0,0,0,1,24,0,2014.0,1,1,1,0,152,499,68,7
152,152,128,Rohtak Bye Pass Road,,75.0,Jind,1.6,77,29.3211153,76.3058328,"CHAUDHARY RANBIR SINGH UNIVERSITY, JIND",126102,www.crsujind.org,0,1,0,1,0,0,0,1,0,0,0,0,6,1,2014.0,1,1,1,0,153,1875,19,98
153,153,129,P O NIT Campus,GT Road Byepass,154.5,Jalandhar,141134.0,37,31.4158821,75.52186400000002,"Dr. B. R. Ambedkar National Institute of Technology, Jalandhar",144011,www.nitj.ac.in,1,0,1,1,0,1,1,12,0,0,1,1,3,1,1987.0,1,1,1,0,154,2314,69,33
154,154,130,"Village- Sadopur,Ambala",Ambala - Chandigarh Highway,44.0,Ambala City,36325.0,70,30.33333,74.66666,"MAHARASHI MARKENDESHWAR UNIVERSITY, SADOPUR-AMBALA",134007,www.mmambala.org,0,1,0,1,0,0,1,2,0,1,1,0,6,1,2010.0,1,1,1,0,155,2187,59,37
155,155,131,"Maharshi Dayanand University, Rohtak",,697.0,Rohtak,275000.0,82,28.23562,76.25364,"Maharshi Dayanand University, Rohtak",124001,www.mdurohtak.ac.in,0,1,1,1,0,1,1,16,0,0,1,0,6,1,1975.0,1,1,1,0,156,2604,23,113
156,156,132,V.P.O Waknaghat,Tehsil - Kandaghat,25.0,Solan,73150.98,31,31.76321,77.32164,"Jaypee University of Information Technology, Waknaghat, Solan",173234,www.juit.ac.in,0,1,0,1,0,1,1,23,0,0,0,1,2,1,2002.0,1,1,1,0,157,2976,28,106
157,157,133,Jnana Sangama  Machche Belgaum  590 018,,115.0,Belgaum,42005.0,555,15.77634,74.46135500000003,"Vesveswaraiah Technological University, Belgaum",590018,www.vtu.ac.in,1,0,0,0,0,0,0,5,0,0,0,1,29,1,1994.0,1,1,1,0,158,1586,27,58
158,158,134,ASHARM ROAD,"Income Tax,",98.16,AHMEDABAD,68101.0,474,23.040001,72.560001,"Gujarat Vidyapith, Ahmedabad",380014,www.gujaratvidyapith.org,1,0,1,0,0,0,1,11,1,0,1,1,24,1,1920.0,1,1,1,0,159,1698,58,29
159,159,135,Sarisha,Diamond Harbour Road,7.0,Sarisha,2947.0,343,22.19873,88.20229,DIAMOND HARBOUR WOMENS UNIVERSITY,743368,www.dhwu.ac.in,0,1,0,0,0,0,0,0,0,0,0,0,19,0,2012.0,1,1,1,0,160,2916,56,52
160,160,136,"Prashaskiya Bhavan, Mauda Road, Ramtek",Dist.Nagpur,9.68,Ramtek,1536.45,505,21.3935099,79.29954140000002,"Kavi Kulguru Kalidas Sanskrit Vishwavidyalaya, Ramtek",441106,www.kksanskrituni.digitaluniversity.ac,1,1,0,0,0,0,0,0,0,0,1,1,27,0,1997.0,1,1,1,0,161,1842,49,37
161,161,137,"INDIRA GANDHI UNIVERSITY, MEERPUR",MEERPUR,100.0,REWARI,39361.18,85,28.241564,76.695986,"INDIRA GANDHI UNIVERSITY, MEERPUR",122502,www.igu.ac.in,1,0,1,0,0,0,0,2,0,0,1,0,6,1,2013.0,1,1,1,0,162,1691,20,84
162,162,138,Dibrugarh,Pin-786004,500.0,Dibrugarh,123931.04,310,27.11111,94.11111,"Dibrugarh University, Dibrugarh",786004,dibru.ac.in,1,0,1,0,0,0,1,14,0,0,1,0,18,1,1965.0,1,1,1,0,163,1645,32,51
163,163,140,"manipal.edu Building, Manipal",Manipal,641.81,Udupi,673906.85,569,,,"Manipal Academy of Higher Education, Manipal",576104,www.manipal.edu,1,0,0,0,0,1,1,2,0,0,0,0,29,1,1993.0,1,1,1,0,164,407,67,6
164,164,141,"DD-36, Sector-I, Salt Lake, Kolkata-700064",,2.5,Kolkata,3500.0,337,22.59165,88.41230999999998,"The West Bengal University of Health Sciences, Kolkata",700064,http://www.wbuhs.ac.in,0,1,0,0,0,0,0,0,0,0,0,1,19,0,2003.0,1,1,1,0,165,916,16,57
165,165,142,Central Silk Board Building,Landiguda,430.37,Koraput,,398,18.730001,82.830001,"Central University of Orissa, Koraput",764020,www.cuo.ac.in,1,0,1,0,0,0,0,2,0,0,1,0,21,1,2009.0,1,1,1,0,166,1133,25,45
166,166,143,Sampurnanand Sanskrit Vishwavidyalaya,Jagatganj,67.0,Varanasi,39755.55,197,,,"Sampurnanand Sanskrit Vishwavidyalaya,  Varanasi",221002,ssvv.ac.in,1,0,1,0,0,1,0,5,0,0,1,1,9,1,1791.0,1,1,1,0,167,291,32,9
167,167,144,"Kathajodi Campus, On Kathajodi Ring Road","CDA, Sector-13",49.7,Cuttack,29259.0,381,,,"National Law University, Cuttuck",753015,www.nluo.ac.in,0,1,0,1,0,0,0,3,0,0,0,1,21,1,2008.0,1,1,1,0,168,2178,40,54
168,168,145,PHULWARI SHARIF,,96.5,Patna,,230,25.61501,85.13001,"ALL INDIA INSTITUTE OF MEDICAL SCIENCES, PATNA",801505,http://www.aiimspatna.org,0,1,0,0,0,0,0,3,0,0,0,1,10,1,2009.0,1,1,1,0,169,2768,41,67
169,169,146,Ranchi Road,P.O.- Sainik School,13.0,Purulia,9462.68,340,23.36125,86.33991,Sidho-Kanho Birsa University,723104,www.skbu.ac.in,0,1,0,0,1,0,0,0,0,0,1,0,19,0,2010.0,1,1,1,0,170,2320,57,40
170,170,147,"Solapur Pune National high way, kegaon, solapur- 413 255","Solapur Pune National high way, kegaon, solapur- 413 255",517.5,Solapur,25000.0,526,17.12345,75.12345,"Solapur University, Solapur",413255,http://su.digitaluniversity.ac,1,0,0,1,0,1,0,2,0,0,1,0,27,1,2004.0,1,1,1,0,171,2597,46,56
171,171,148,At/Po : R. Sitapur,Via: Uppalada,64.0,Paralakhemundi,50915.0,389,18.806629,84.14020500000002,Centurion University of Technology and Management,761211,www.cutm.ac.in,0,1,0,1,0,1,0,7,0,0,1,1,21,1,2010.0,1,1,1,0,172,981,19,51
172,172,150,"Race Course Road, Opp. Mela Ground",Gwalior,197.45,Gwalior,13500.0,421,26.00001,78.00001,"Rajmata Vijayaraje Scindia Krishi Vishwa Vidyalaya, Gwalior",474002,http://www.rvskvv.net,0,0,0,0,0,0,0,0,0,0,0,1,23,0,2008.0,1,1,1,0,173,1309,54,24
173,173,151,B.M.Birla Shodh Sansthan Parisar,Dewas Road,25.0,Ujjain,100000.0,435,23.1111111,75.466666,"Maharishi Panini Sanskrit Vishwavidyalaya, Ujjain",456010,www.mpsvvujjain.org,1,0,0,0,1,0,0,0,0,0,0,1,23,0,2008.0,1,1,1,0,174,257,60,4
174,174,152,"Okhla Industrial Estate, Phase-III,","New Delhi-110020, India",25.0,New Delhi,32508.0,98,28.54601,77.27301,"Indraprastha Institute of Information Technology, Delhi",110020,www.iiitd.ac.in,0,1,1,0,0,1,1,2,0,0,0,1,7,1,2008.0,1,1,1,0,175,2984,35,85
175,175,153,Ramkrushna Paramhansha Vidhya Sankul,"Kh Road, Sector - 15",21.02,GANDHINGAR,15122.14,473,23.237087,72.63693599999998,"INDIAN INSTITUTE OF TEACHER EDUCATION, GANDHINAGAR",382016,www.iite.ac.in,0,1,0,0,0,0,0,2,0,1,1,1,24,1,2010.0,1,1,1,0,176,1875,21,89
176,176,154,Tirumalaisamudram,Thanjavur,213.0,Thanjavur,210196.0,620,,,"Shanmugha Arts, Science, Technology & Reserch Academy (SASTRA), Thanjavur",613401,www.sastra.edu,1,0,1,0,0,1,0,14,1,1,1,0,33,1,1984.0,1,1,1,0,177,1554,66,23
177,177,155,Japanese Zone,National Highway-8,49.24,Neemrana,15695.0,104,27.9764364,76.3872099,RAFFLLES UNIVERSITY,301705,www.rafflesuniversity.edu.in,1,1,0,0,1,0,0,2,0,0,1,0,8,1,2011.0,1,1,1,0,178,1802,46,39
178,178,156,"Housefed Complex, Last Gate",Dispur,21.0,Guwahati - 781006,2776.0,321,26.136519,91.789643,"Krishna Kanta Hanidiqui State Open University, Guwahati",781006,http://www.kkhsou.in,0,1,0,0,0,1,0,0,1,0,0,0,18,0,2006.0,1,1,1,0,179,2597,54,48
179,179,157,"Karnataka Janapada Vishwavidyalaya, Gotagodi, N.H-4, Shiggaon Taluk, Haveri District-581 197",,160.19,Shiggaon,4096.0,564,,,"KARNATAKA JANAPADA VISHWAVIDYALAYA, GOTAGODI",581197,www.Janapadauni.in,0,1,1,0,0,0,0,1,0,1,1,1,29,1,2011.0,1,1,1,0,180,2612,67,38
180,180,158,"Nathalal Parekh Marg,","Matunga,",16.0,Mumbai,31743.0,519,19.12601,72.51301,"Institute of Chemical Technology, Mumbai",400019,www.ictmumbai.edu.in,1,0,1,0,0,1,1,5,0,0,1,1,27,1,1933.0,1,1,1,0,181,833,26,32
181,181,159,Jain Vishva Bharati Institute,,27.181594,Ladnun-341306,16768.0,112,27.644948,74.395002,"Jain Vishva Bharati Institute, Nagaur",341306,http://jvbi.ac.in/,1,0,1,1,1,1,0,2,1,0,1,1,8,1,1991.0,1,1,1,0,182,2894,17,170
182,182,160,SH-18,OPP. OIL FED PLANT BHOPAL- INDORE ROAD PACHAMA,63.4,SEHORE,3116000.0,445,23.20001,77.08001,"SRI SATYA SAI UNIVERSITY OF TECHNOLOGY & MEDICAL SCIENCES, SEHORE",466001,www.sssutms.co.in,0,1,0,0,0,0,0,1,0,0,1,0,23,1,2013.0,1,1,1,0,183,1804,31,58
183,183,161,"Maliba Campus ,Gopal Vidhyanagar","Bardoli-Mahuva Road, At.Tarsadi Post.Sarbhon",100.0,Mahuva 394350,83612.74,492,21.06861,73.13291,UKA TARSADIA UNIVERSITY,394350,www.utu.ac.in,0,1,0,1,0,0,0,3,0,0,1,0,24,1,2011.0,1,1,1,0,184,295,44,6
184,184,162,Chhend,,134.0,Rourkela,50000.0,374,22.23561,84.82661,"Biju Patnaik University of Technology, Rourkela",769015,www.bput.ac.in,1,0,0,0,0,0,0,0,0,0,0,0,21,0,2002.0,1,1,1,0,185,1663,72,23
185,185,163,North Park Avenue,Sector-8,250.0,Bhilai,,409,,,"Chhattisgarh Swami Vivekanand Technical University, Bhilai",490009,csvtu.ac.in,1,0,0,0,0,0,0,0,0,0,0,1,22,0,2005.0,1,1,1,0,186,870,64,13
186,186,164,"Post box No. 190, Tanhril, Aizawl – 796 004, GRAM: MZU",,978.1988,Aizawl,198296.0,283,23.73941,92.66511,"Mizoram University, Aizwal",796004,www.mzu.edu.in,1,0,1,1,0,1,1,8,0,1,1,0,15,1,2000.0,1,1,1,0,187,2335,36,64
187,187,165,Durtlang North,Aizawl - 796025,17.58,Aizawl,4000.0,283,,,"Institute of Chartered Financial Analysts of India University, Aizawl",796025,www.iumizoram.edu.in,1,1,0,1,0,0,1,0,0,0,0,0,15,0,2006.0,1,1,1,0,188,589,16,36
188,188,166,Vishnupuri,,550.0,Nanded - 431606,79891.54,511,19.153061,77.305847,"Swami Ramanand Teerth Marathwada University, Nanded",431606,www.srtmun.ac.in,0,1,1,0,0,1,1,6,1,0,1,0,27,1,1994.0,1,1,1,0,189,2714,58,46
189,189,167,Sidhuwal Bhadson Road,Village Sidhuwal,50.0,Patiala,62522.0,48,,,"The Rajiv Gandhi National  University of Law, Patiala",147006,www.rgnul.ac.in,1,1,1,0,1,1,1,8,0,0,1,1,3,1,2006.0,1,1,1,0,190,399,64,6
190,190,168,DAYALBAGH,,44.0,AGRA 282 005,57101.58,146,,,"Dayalbagh Educational Institute, Agra",282005,www.dei.ac.in,1,1,1,1,0,1,0,5,1,0,0,0,9,1,1947.0,1,1,1,0,191,2707,60,45
191,191,169,Main Campus,,11000.0,Pantnagar,,67,28.97001,79.41001,"G.B. Pant Universtiy of Agriculture and Technology, Pantnagar",263145,www.gbpuat.ac.in,0,0,0,0,0,1,0,21,0,0,1,1,5,1,1960.0,1,1,1,0,192,1625,33,49
192,192,170,Thapar Technology Campus,Bhadson Road,250.0,Patiala,285000.0,48,30.3502268,76.36611979999998,"Thapar Institute of Engineering and Technology, Patiala",147004,www.thapar.edu,0,1,0,0,0,1,1,10,0,0,1,1,3,1,1956.0,1,1,1,0,193,540,62,8
193,193,171,"Virbhadra Marg, Rishikesh",Pashulok,101.0,Rishikesh,204900.0,60,30.078601300000006,70.28522679999999,"ALL INDIA INSTITUTE OF MEDICAL SCIENCES, RISHIKESH",249203,www.aiimsrishikesh.edu.in,0,1,0,1,0,0,0,3,0,1,1,1,5,1,2012.0,1,1,1,0,194,2495,36,69
194,194,172,"University Office, M.S. University of Baroda,  Opposite Drug Laboratory","Fateh Gunj, Vadodara",275.0,Vadodara,464684.0,486,22.320001,73.180001,"Maharaja Sayajirao University of Baroda, Vadodara",390002,msubaroda.ac.in,1,1,1,0,0,1,0,16,0,0,0,0,24,1,1881.0,1,1,1,0,195,664,37,17
195,195,173,Narendra Deo University of Agriculture & Technology,Kumarganj,3327.5,Faizabad,200060.0,177,26.77161,82.14491,"Narendra Deo University of Agriculture & Technology, Faizabad",224229,nduat.in,0,1,1,0,0,1,0,19,0,0,1,1,9,1,1975.0,1,1,1,0,196,1497,51,29
196,196,174,"33rd Milestone, Aligarh-Mathura Highway",P.O. Beswan,72.0,Aligarh,63825.35,143,27.650018,77.883321,"Mangalayatan University, Aligarh",202145,www.mangalayatan.in,0,1,0,1,0,0,1,3,0,1,0,0,9,1,2006.0,1,1,1,0,197,2902,58,50
197,197,175,Chandigarh-Patiala National Highway (NH-64),Tehsil Rajpura,40.315,Rajpura,90329.54,48,30.483997,76.5939516,"Chitkara University, Patiala",140401,www.chitkara.edu.in,0,1,0,0,0,1,1,7,0,0,1,0,3,1,2010.0,1,1,1,0,198,2486,73,34
198,198,176,Post Box No. 1,A B Road,122.5,Raghogarh,139268.99,458,24.65001,77.31671,"Jaypee University of Engeenering & Technology, Guna",473226,www.juet.ac.in,1,0,0,0,0,0,0,22,0,1,1,0,23,1,2003.0,1,1,1,0,199,2318,48,48
199,199,177,"Post Office Box No. 80,","Umavi Nagar, Jalgaon",659.44,Jalgaon,89576.7,499,21.010000100000006,75.56000999999998,"North Maharashtra University, Jalgaon",425001,www.nmu.ac.in,0,1,0,0,0,0,0,8,0,0,0,0,27,1,1990.0,1,1,1,0,200,1212,42,28
200,200,178,Mothorowala Road,Kedarpur,55.0,Dehardun,47922.0,60,,,"Doon University, Dehradun",248001,www.doonuniversity.ac.in,0,1,0,0,0,0,0,2,0,0,0,0,5,1,2005.0,1,1,1,0,201,1692,57,29
201,201,179,"Rawat Bhata Road, Akelgarh",Kota,400.0,kota,150.0,127,,,"Rajasthan Technical University, Kota",324010,www.rtu.ac.in,0,0,0,0,0,0,0,0,0,0,0,1,8,0,1981.0,1,1,1,0,202,1017,70,14
202,202,180,"National Highway #92, Morena Link Road,","Gwalior (M.P.) , Pin - 474015",149.609,Gwalior,75975.0,421,26.14001,78.10001,"Atal Bihari Vajpayee Indian Institute of Information Technology and Management, Gwalior",474015,www.iiitm.ac.in,0,1,0,1,0,1,0,4,0,0,1,1,23,1,1997.0,1,1,1,0,203,417,52,8
203,203,181,Anand Nagar,Krishnankoil-626126,65.0,Srivilliputtur,185806.0,625,9.5733676,77.689401,"Kalasalingam Academy of Research and Higher Education, Srivilliputhrur",626126,www.kalasalingam.ac.in,1,0,0,0,0,1,0,7,0,0,0,0,33,1,1984.0,1,1,1,0,204,1364,26,52
204,204,182,"Vishwavidhyalaya Marg, Teen Pani Bypass,","Rampur Road,",25.0,Haldwani,100000.0,66,29.11079,79.30428,Uttarakhand Open University,263139,www.uou.ac.in,0,0,0,0,0,0,0,0,1,0,0,0,5,0,2005.0,1,1,1,0,205,955,51,18
205,205,183,First Line Beach Road,,85.0,Nagapattinam,3720.0,618,10.82638,79.82639,TAMIL NADU FISHERIES UNIVERSITY,611001,www.tnfu.ac.in,0,0,0,0,0,1,0,0,0,0,0,1,33,0,2012.0,1,1,1,0,206,353,52,6
206,206,184,Vasna- Bhayli Road,,4.85,Vadodara,16924.0,486,22.30715,73.18121,Navrachana University,391410,www.nuv.ac.in,0,1,0,1,0,0,0,2,0,0,0,0,24,1,2009.0,1,1,1,0,207,1601,63,25
207,207,185,"CHAILCHOWK, TEHSIL CHACHIOT",DISTT. MANDI (HP),10.0,CHAILCHOWK,15820.0,27,31.35015,76.52015,ABHILASHI UNIVERSITY,175028,www.abhilashiuniversity.com,0,1,0,1,0,0,0,2,0,1,1,0,2,1,2014.0,1,1,1,0,208,1974,36,54
208,208,186,"Mirzapur Pole, Delhi Yamunotri Marg",State Highway 57,360.0,Saharanpur,70619.0,132,30.17345,77.38241,GLOCAL UNIVERSITY,247122,www.glocaluniversity.edu.in,1,1,0,0,0,0,0,4,0,1,1,0,9,1,2012.0,1,1,1,0,209,2370,29,81
209,209,187,BIT Campus,,,,,614,,,"INDIAN INSTITUTE OF INFORMATION TECHNOLOGY, SRIRANGAM",620024,www.iiitsrirangam.in,0,1,0,0,0,0,0,0,0,0,1,1,33,0,2013.0,1,1,1,0,210,1360,41,33
210,210,188,Periyar Nagar,Vallam - 613 403,116.02,Thanjavur,90846.1,620,10.7300406,79.0688932,"Periyar Maniammal Institute of Science & Technoloyg, Thanjavur",613403,www.pmu.edu,1,1,0,1,0,1,1,4,0,0,1,1,33,1,1988.0,1,1,1,0,211,884,68,13
211,211,189,Po Naya Gaon Chitrakoot,Po Naya Gaon Chitrakoot,229.0,Satna,200335.0,429,,,"Mahatama Gandhi Gramodaya Vishwavidyalaya, Chitrakoot, Satna",485334,www.mgcgvchitrakoot.com,0,1,1,1,1,1,0,2,1,0,1,1,23,1,1991.0,1,1,1,0,212,2846,37,76
212,212,190,GOVT. GIRLS POLYTECHNIC CAMPUS,PREMNAGAR SUDHOWALA,21.0,DEHRADUN,7260.0,60,,,"Uttrakhand Technical University, Dehradun",248007,www.uktech.ac.in,0,1,0,0,1,0,0,0,0,0,0,0,5,0,2005.0,1,1,1,0,213,2882,56,51
213,213,191,Karunya Nagar,,700.0,Coimbatore,223566.55,632,10.9358052,76.7438322,"Karunya Institute of Technology and Sciences, Coimbatore",641114,www.karunya.edu,1,0,1,1,0,1,1,17,0,0,1,1,33,1,1986.0,1,1,1,0,214,2523,49,51
214,214,192,Alagappapuram,Alagappa Nagar,420.0,Karaikudi,73775.4,622,10.062707,78.7900282,"Alagappa University, Alagappa Nagar, Karaikudi",630003,www.alagappauniversity.ac.in,0,1,1,0,0,1,1,7,1,1,1,0,33,1,1985.0,1,1,1,0,215,1201,62,19
215,215,193,Krishinagar,Adhartal,3838.38,Jabalpur,50000.0,451,23.19939,79.94445,"Jawaharlal Nehru Krishi Vishwavidyalaya, Jabalpur",482004,www.jnkvv.nic.in,0,0,0,0,0,1,0,6,0,0,0,1,23,1,1964.0,1,1,1,0,216,2643,74,35
216,216,194,Dasauli,Kursi Road,102.7254,Lucknow,250745.94,157,26.958454,80.998109,"Integral University, Lucknow",226026,www.integraluniversity.ac.in,1,0,0,1,0,1,0,2,1,0,1,0,9,1,1998.0,1,1,1,0,217,2109,74,28
217,217,195,Aarang-Kharora Highway,Gram - Gullu,30.94,Aarang,46451.25,410,21.2543158,82.0068096,"MATS University, Raipur",493441,www.matsuniversity.ac.in,0,1,0,1,0,0,0,5,0,0,1,0,22,1,2003.0,1,1,1,0,218,418,44,9
218,218,196,"Padur, Kelambakkam,","Chennai - 603 103, India",38.02,Chennai,96544.0,604,12.6840002,79.9833433,"Hindustan Institute of Technology and Science, Kancheepuram",603103,www.hindustanuniv.ac.in,1,0,1,1,0,1,1,7,0,1,1,1,33,1,1985.0,1,1,1,0,219,370,67,5
219,219,197,TIRUCHIRAPPALLI,TAMIL NADU,777.0,TIRUCHIRAPPALLI,184277.0,614,,,"National Institute of Technology, Tiruchirapalli",620015,http://www.nitt.edu,0,1,0,1,0,1,1,27,0,0,1,1,33,1,1964.0,1,1,1,0,220,1996,41,48
220,220,198,"""Poompozhil"",","NO: 5, DR. D.G.S. DINAKARAN SALAI",5.0,CHENNAI,,603,,,"Tamil Nadu Dr. Ambedkar Law University, Chennai",600028,www.tndalu.ac.in,0,1,0,1,0,0,0,1,1,0,1,1,33,1,1997.0,1,1,1,0,221,2558,40,63
221,221,199,TIRUPATI,,133.5,TIRUPATI,348300.0,554,13.12345,79.12345,"Sri Padmavathi Mahila Visva Vidyalayam, Tirupathi",517502,www.spmvv.ac.in,0,1,0,0,0,1,0,9,1,0,1,0,28,1,1983.0,1,1,1,0,222,1702,60,28
222,222,200,"Rajiv Gandhi Salai (OMR Chennai), Padur",Kelambakkam,33.45,,,604,12.78001,80.22001,"Chettinad Academy of Research & Education, Kancheepuram",603103,www.chettinadhealthcity.com,0,1,0,1,0,1,0,9,0,0,1,0,33,1,2006.0,1,1,1,0,223,469,45,10
223,223,201,Deoria Road,,338.54,,70420.02,188,26.450001,83.240001,"MADAN MOHAN MALAVIYA UNIVERSITY OF TECHNOLOGY,",273010,www.mmmut.ac.in,1,0,1,1,0,0,0,9,0,0,1,0,9,1,1962.0,1,1,1,0,224,2593,21,123
224,224,202,Sleepy Hollow,Sukha Tal,104.597,Nainital,,66,29.39297,79.45405,"Kumaun University, Nainital",263001,www.kunainital.ac.in,1,1,0,0,0,1,0,11,0,0,1,0,5,1,1973.0,1,1,1,0,225,2798,39,71
225,225,203,"JEPPIAAR NAGAR,",RAJIV GANDHI SALAI,120.0,CHENNAI,345140.0,604,12.510001,80.150001,"Sathyabama Institute of Science & Technology, Chennai",600119,www.sathyabamauniversity.ac.in,1,0,0,1,0,1,0,8,0,0,0,0,33,1,1988.0,1,1,1,0,226,1960,59,33
226,226,204,"Madhavaram Milk Colony, Chennai-600 051",,319.2,Chennai,2580.0,602,13.162716,80.24363199999998,"Tamilnadu Veterinary & Animal Sciences University, Chennai",600051,tanuvas.ac.in,0,0,1,1,0,1,0,0,1,1,1,1,33,0,1903.0,1,1,1,0,227,1407,51,27
227,227,205,Kolar Road,pin -462016,50.0,Bhopal,894173.0,444,23.250001,77.420001,"M.P. Bhoj (Open) University, Bhopal",462016,www.bhojvirtualuniversity.com,0,0,0,0,0,0,0,0,1,0,0,0,23,0,1991.0,1,1,1,0,228,378,37,10
228,228,206,"Seethakathi Estate, Vandalur",Chennai,59.19,Chennai,119303.0,604,12.893191,80.081585,B.S. Abdur Rahman Institute of Science & Technology,600048,www.bsauniv.ac.in,0,1,1,1,0,1,1,2,0,0,1,1,33,1,1984.0,1,1,1,0,229,1801,32,56
229,229,207,A-10,Sector-62,25.3,Noida,158079.0,141,28.62976,77.37279000000002,"Jaypee Institute of Information Technology, Noida",201309,www.jiit.ac.in,1,1,0,0,0,0,1,12,0,0,0,1,9,1,2001.0,1,1,1,0,230,1835,34,53
230,230,208,"Vidya Vihar, Raibarely Road,",,251.0,Lucknow,30000.0,157,,,"Babasheb Bhimrao Ambedkar University, Lucknow",226025,www.bbau.ac.in,1,0,0,0,0,1,0,6,0,0,0,0,9,1,1994.0,1,1,1,0,231,479,38,12
231,231,209,"Pt. Ravishankar Shukla University, Raipur Chhattisgarh",,300.17,Raipur,27894.0,410,15.02154,76.1200054,"Pt. Ravishankar Shukla University, Raipur",492010,www.prsu.ac.in,0,1,0,1,0,1,0,3,0,0,1,0,22,1,1964.0,1,1,1,0,232,1761,73,24
232,232,210,"Maharishi Road,","Mangla,",51.66,Bilaspur,3380.0,406,22.00005,82.00013,"Maharishi University of Management and Technology,  Bilaspur",495001,www.mumt.com,1,0,0,0,0,0,0,1,0,0,1,0,22,1,2002.0,1,1,1,0,233,2343,31,75
233,233,211,Vidyaranya-583 276,"Hospet Tq, Bellary Dist, Karnataka State",686.93,Vidyaranya,38190.0,565,15.333329999999998,76.46666,"Kannada University, Hampi, Kamalapura",583276,www.kannadauniversity.org,0,1,1,0,1,1,0,3,0,1,1,1,29,1,1991.0,1,1,1,0,234,2210,50,44
234,234,212,"No. 42, Avadi Veltech Road,","Avadi, Chennai - 600 062",52.03,Chennai,117052.0,602,13.00001,80.00001,"Vel Tech Rangarajan Dr. Sagunthala R & D Institute of Science & Technology, Chennai",600062,http://www.veltechuniv.edu.in/,0,1,0,1,0,1,0,4,0,0,1,0,33,1,1997.0,1,1,1,0,235,497,20,24
235,235,213,"No.69, ANNA SALAI",GUINDY,9.9,CHENNAI,5452.0,603,13.009947,80.218228,"Tamil Nadu Dr. M.G.R. Medical University , Chennai",600032,www.tnmgrmu.ac.in,0,1,0,0,0,1,0,0,1,0,1,1,33,0,1987.0,1,1,1,0,236,1534,44,34
236,236,214,"Shri Vihar,  Puri - 752003",Shri Vihar Puri,100.0,Puri,,387,19.00048,85.00052,"Shri Jagannath Sanskrit Vishwavidyalaya, Puri",752003,www.sjsv.nic.in,1,0,0,0,0,0,0,3,0,0,1,1,21,1,1981.0,1,1,1,0,237,1527,23,66
237,237,215,Village & Post- Kastla Kasmabad,Hapur,60.46,Ghaziabad,28.76202,140,28.72216,77.69400999999998,MONAD UNIVERSITY,245101,www.monad.edu.in,0,1,1,0,0,0,1,0,0,0,1,0,9,0,2010.0,1,1,1,0,238,1589,40,39
238,238,216,Marudhamalai Road,641 046,976.81,Coimbatore,71212.0,632,9.1538205,77.977434,"Bharathiar University, Coimbatore",641046,http://www.b-u.ac.in,1,0,0,1,0,1,0,9,1,0,1,0,33,1,1981.0,1,1,1,0,239,2608,52,50
239,239,217,Tonakela Camp Road,Avadi,32.26,Chennai,66875.0,602,13.109893,80.11998,"St. Peter's Institute of Higher Education and Research, Chennai",600054,www.stpetersuniversity.org,0,1,0,0,0,0,0,2,1,0,0,1,33,1,1993.0,1,1,1,0,240,484,25,19
240,240,218,Post Office: Sherpur,Chakrata Road,50.0,Dehradun,1575.0,60,30.202601,77.523201,"Himgiri Zee University, Dehradun",248197,www.hzu.edu.in,0,1,0,0,0,0,1,2,0,0,0,0,5,1,2005.0,1,1,1,0,241,1463,34,43
241,241,219,BF-142,Saltlake Sector -I,0.8,Kokata,4153.0,337,22.56001,88.36001,"Maulana Abul Kalam Azad University of Technology, West Bengal",700064,http://www.wbut.ac.in,0,1,1,0,0,0,0,1,0,0,1,1,19,1,2000.0,1,1,1,0,242,2118,21,100
242,242,220,"34, Ali Imam Path, (Harding Road) Near Haj Bhawan,",Patna,,Patna,,230,,,"Maulana Mazharul Haque Arabic & Persian University, Patna",800001,www.mmhapu.bih.nic.in,0,1,0,1,0,0,0,0,0,0,0,0,10,0,1992.0,1,1,1,0,243,1187,28,42
243,243,221,P.O Agricultural Institute,,900.0,,56470.95,175,,,"Sam Higginbottom Institute of Agriculture, Technology & Sciences, Allahabad",211007,shiats.edu.in,1,1,0,1,0,1,1,11,1,0,0,1,9,1,1910.0,1,1,1,0,244,1454,54,26
244,244,222,National Institute of Technology Calicut,NIT Campus  P. O.,284.37,Calicut,168108.0,591,,,"National Institute of Technology, Calicut",673601,http://www.nitc.ac.in/,1,0,1,1,0,1,1,14,0,0,1,0,32,1,1961.0,1,1,1,0,245,661,58,11
245,245,223,"University Enclave, Medical Sciences Complex, Deralakatte,",MANGALORE - 575 018,50.0,MANGALORE,68155.0,575,,,"NITTE Unversity, Mangalore",575018,www.nitte.edu.in,0,1,0,1,0,1,1,12,0,1,1,0,29,1,2008.0,1,1,1,0,246,2121,74,28
246,246,224,Sector-14 Dwarka,New Delhi-110078,26.0,Delhi,67249.0,97,28.5993735,77.02370140000002,"National Law University, Delhi",110078,www.nludelhi.ac.in,0,1,1,1,0,0,1,2,1,0,1,1,7,1,2008.0,1,1,1,0,247,2410,55,43
247,247,225,"Noorul Islam Centre for Higher Education,Kumaracoil,Thucklay","K.k dist, 629180",50.0,Nagercoil,73123.92,629,,,"Noorul Islam Centre for Higher Education, Kanyakumari",629180,www.niceindia.com,1,0,0,1,0,1,0,3,0,0,1,0,33,1,1989.0,1,1,1,0,248,1628,34,47
248,248,226,C/0. Xavier Institute of Management,Xavier Square,55.0,Bhubaneswar,,387,,,"XAVIER UNIVERSITY, BHUBANESWAR",751013,www.xub.edu.in,1,1,0,0,0,0,0,13,0,0,0,0,21,1,1987.0,1,1,1,0,249,2073,28,74
249,249,227,"NH.79, Bhilwara Chittor By-Pass",Chittor Road Bhilwara,39.4,Bhilwara,40393.93,122,25.2796211,74.6211845,"SANGAM UNIVERSITY, BHILWARA",311001,www.sangamuniversity.ac.in,0,1,0,1,0,0,0,8,0,0,0,0,8,1,2012.0,1,1,1,0,250,827,15,55
250,250,228,GANGAIAMMAN KOIL STREET,"KARAPAKKAM,",10.0,Chennai,139740.0,603,,,"Tamil Nadu Teacher Education University, Chennai",600097,www.tnteu.in,0,1,0,0,0,0,0,0,0,0,0,0,33,0,2008.0,1,1,1,0,251,912,62,14
251,251,229,Koba,Institutional Area,37.0,Gandhinagar,5550.0,473,23.150284,72.640987,"INSTITUTE OF ADVANCED RESEARCH, GANDHINAGAR",382007,www.iar.ac.in,1,0,1,0,0,0,0,3,0,0,0,0,24,1,2006.0,1,1,1,0,252,372,29,12
252,252,230,Pilani - Chirawa Road,P.O. Box No. 13,31.87,Pilani,12880.87,103,28.37191,75.62080999999998,"Shridhar University,  Pilani",333031,www.shridharuniversity.ac.in,0,1,0,0,0,0,0,3,0,0,0,0,8,1,2009.0,1,1,1,0,253,433,29,14
253,253,231,Choudhary Charan Singh University,,222.0,Meerut,,138,,,"Choudhary Charan Singh University, Meerut",250004,www.ccsuniversity.ac.in,1,0,0,1,0,0,0,8,0,0,0,0,9,1,1965.0,1,1,1,0,254,878,23,38
254,254,232,"Chikkahagade Cross, Chandapura Anekal Main Road",Anekal,45.0,Bangalore,66260.0,572,12.90688,77.60799,Alliance University. Bangalore,562106,www.alliance.edu.in,0,1,0,1,1,0,1,8,0,0,1,0,29,1,2010.0,1,1,1,0,255,2513,41,61
255,255,233,"Sector A-7, Institutional Area, Institute of Applied Manpower Research",(IAMR Campus) Near Satywadi Raja Harish Chandra Hospital Narela,,Delhi,,96,28.843038,77.10521700000002,National Institute of Technology Delhi,110040,www.nitdelhi.ac.in,1,0,1,1,0,0,1,4,0,1,1,0,7,1,2010.0,1,1,1,0,256,1641,54,30
256,256,234,Kameshwar Nagar,0,63.0,Darbhanga,0.0,215,26.17001,85.90001,"Kameshwar Singh Darbhanga Sanskrit Vishwavidyalaya, Darbhanga",846008,www.ksdsu.edu.in,1,1,1,0,1,0,0,4,0,1,1,1,10,1,1960.0,1,1,0,1,257,1908,34,56
257,257,235,Sri Sai University,Palampur,10.2,Palampur,22019.309,24,,,"Sri Sai University, Palampur",176061,www.srisaiuniversity.com,0,1,0,1,0,0,1,2,0,0,0,0,2,1,2010.0,1,1,0,1,258,1845,66,27
258,258,236,Suryamaninagar,PIN- 799022,78.0,Agartala,99575.0,289,,,"Tripura University, Agartala",799022,www.tripurauniv.in,1,1,0,1,1,1,1,2,1,0,0,0,16,1,1987.0,1,1,0,1,259,1993,45,44
259,259,237,"LDRP ITR Campus, Nr Kh 5 Circle",Sector 15,80.0,Gandhinagar,200000.0,473,,,"Kadi Sarva Vishwavidyalaya, Gandihnagar",382015,www.ksvuniversity.org.in,0,1,0,0,0,0,0,2,0,0,0,0,24,1,2007.0,1,1,0,1,260,2334,50,46
260,260,238,UHS BAGALKOT,"UDYANAGIRI, SEEMIKERE,",300.0,BAGALKOT,240868.89,556,16.00018,75.00069,"University  of Horticultural Sciences, Bagalkot",587104,http://www.uhsbagalkot.edu.in,0,1,0,0,1,1,1,0,0,0,1,1,29,0,2008.0,1,1,0,1,261,1600,37,43
261,261,239,"Subhartipuram, NH-58, Delhi-Haridwar Bye Pass Road, Meerut","Subhartipuram, NH-58, Delhi-Haridwar Bye Pass Road, Meerut",143.0,Meerut,344140.0,138,,,"Swami Vivekananda Subharti University, Meerut",250005,www.subharti.org,0,1,0,1,0,0,1,15,1,0,1,0,9,1,1996.0,1,1,0,1,262,1112,34,32
262,262,240,Kargi Road,Kota Bilaspur,50.0,Bilaspur,70000.0,406,22.855001,82.549001,"Dr. C. V. Raman University, Kota Bilaspur",495113,www.cvru.ac.in,1,0,0,0,0,0,0,2,1,0,1,0,22,1,2006.0,1,1,0,1,263,1758,68,25
263,263,241,0,0,71.01,0,2639000.0,364,23.3717001,85.3242001,"Ranchi University, Ranchi",834001,http://www.ranchiuniversity.ac.in,1,0,0,0,0,0,0,3,0,0,0,0,20,1,1960.0,1,1,0,1,264,482,39,12
264,264,242,Palkalaiperur,,1038.49,Tiruchirappalli,57950.46,614,10.6759751,78.74336979,"Bharathidasan University, Tiruchirappalli",620024,www.bdu.ac.in,1,0,1,1,0,0,1,8,0,0,1,0,33,1,1982.0,1,1,0,1,265,1899,25,75
265,265,243,BEHIND OF SHRI KALYAN GOVT. COLLEGE SIKAR,,30.0,SIKAR,0.0,111,27.676915500000003,75.1876126,PANDIT DEENDAYAL UPADHYAYA SHEKHAWATI UNIVERSITY,332001,www.shekhauni.ac.in,0,0,0,0,1,0,0,0,0,0,0,0,8,0,2012.0,1,1,0,1,266,2912,54,53
266,266,244,Khairagarh,,21.57,Khairagarh,30731.0,408,21.41555,80.98111,"Indira Kala Sangit Vishwavidyalaya, Khairagarh",491881,http//www.iksvv.com,0,1,1,0,0,1,1,5,0,0,1,1,22,1,1956.0,1,1,0,1,267,921,27,34
267,267,245,"BERUNANPUKURIA,P.O.-MALIKAPUR,P.S.-BARASAT",KOLKATA-700126,30.0,KOLKATA,21.0,337,22.7397039,88.4359503,"West Bengal State University, Kolkata",700126,www.wbsubregistration.org,1,0,0,0,0,0,0,2,0,0,0,0,19,1,2008.0,1,1,0,1,268,625,59,10
268,268,246,Satate Technological University of Madhya Pradesh,"Airport Road,",242.0,Bhopal - 462 033,81678.0,444,23.25001,68.25001,"Rajiv Gandhi Prodoyogiki Vishwavidyalaya, Bhopal",462033,www.rgpv.ac.in,0,1,0,1,0,0,0,2,0,0,0,1,23,1,1999.0,1,1,0,1,269,2620,29,90
269,269,247,NIT Goa,"Farmagudi, (GEC Campus) GOA-403 401",0.0,PONDA,0.0,585,,,National Institute of Technology Goa,403401,http://www.nitgoa.ac.in/,1,0,1,1,1,0,1,5,0,0,1,1,30,1,2010.0,1,1,0,1,270,692,31,22
270,270,248,"Patanjali Yogpeeth, Maharishi Dayanand Gram",Delhi-Haridwar National Highway,32.4162,Haridwar,131183.7072,68,29.9065389,78.0029833,"University of Patanjali, Patanjali Yogpeeth, Haridwar",249405,www.universityofpatanjali.com,1,0,0,0,0,0,0,2,0,0,0,0,5,1,2006.0,1,1,0,1,271,2615,40,65
271,271,249,"Directorate, IIT(BHU), Varanasi",BHU Campus,313.0,Varanasi,,197,25.28201,82.95631,"INDIAN INSTITUTE OF TECHNOLOGY (BANARAS HINDU UNIVERSITY), VARANASI",221005,www.iitbhu.ac.in,1,0,1,0,0,0,0,16,0,0,1,1,9,1,2012.0,1,1,0,1,272,1533,34,45
272,272,250,"P.O: Krishi Viswavidyalaya, Mohanpur, Nadia,West Bengal  PIN 741252",,1726.75,,0.0,336,22.34572,88.56721,"Bidhan Chandra Krishi Vishwavidyalaya , Nadia",741252,www.bckv.edu.in,0,1,0,0,0,1,1,10,0,0,0,1,19,1,1960.0,1,1,0,1,273,1203,40,30
273,273,251,RAJIV GANDHI INSTITUTE OF PETROLEUM TECHNOLOGY,RATAPUR CHOWK,,Raebareli,2243.35,158,,,"Rajiv Gandhi Institute of Petroleum Technology, Rae Bareli",229316,www.rgipt.ac.in,1,0,0,0,0,0,0,3,0,0,1,1,9,1,2007.0,1,1,0,1,274,351,45,7
274,274,252,"Gharuan,Mohali","Gharuan,Mohali",60.0,Kharar,242811.0,52,30.70464,76.71786999999998,CHANDIGARH UNIVERSITY,140413,www.cuchd.in,0,1,0,0,0,0,1,11,0,1,1,0,3,1,2009.0,1,1,0,1,275,1202,17,70
275,275,253,Tetelia Road,Jalukbari,4.0052,Guwahati,1114.82,322,26.08827,91.400172,ASSAM SCIENCE AND TECHNOLOGY UNIVERSITY,781013,www.astu.org.in,0,1,0,0,0,0,0,0,0,0,0,1,18,0,2010.0,1,1,0,1,276,465,62,7
276,276,254,KAU POST,VELLANIKKARA,3150.052,THRISSUR,241168.83,594,10.543001,76.287001,"Kerala Agricultural University, Thrissur",680656,www.kau.edu,1,1,1,1,0,1,0,14,0,1,1,1,32,1,1972.0,1,1,0,1,277,550,63,8
277,277,255,"PALIWAL PARK, AGRA","PALIWAL PARK, AGRA",9.924,AGRA,18275.0,146,36.25001,72.25761,"Dr. B. R. Ambedkar University, Agra",282002,WWW.DBRAU.AC.IN,1,0,0,1,0,0,1,2,0,0,1,0,9,1,1927.0,1,1,0,1,278,933,68,13
278,278,256,"Pachpedi, Civil Line, Jabalpur","Pachpedi, Civil Line, Jabalpur",99.0,Jablpur,60.0,451,,,"Rani Durgavati Vishwavidyalaya, Jabalpur",482001,www.rdunijbpin.nic.in,0,1,1,1,0,1,0,3,0,0,1,0,23,1,1956.0,1,1,0,1,279,2283,72,31
279,279,257,"North Orissa University, Sriram Chandra Vihar, Takatpur, Baripada,","Mayurbhanj, 757003, Odisha, India",99.98,Baripada,29759.0,376,21.56666,86.44444,"North Orissa University, Mayurbhanj",757003,www.nou.nic.in,1,0,1,0,0,1,0,3,1,0,1,0,21,1,1998.0,1,1,0,1,280,1987,52,38
280,280,258,"56A, B. T. Road","Kolkata, Pin - 700 050, West Bengal, India",71672.0,Kolkata,25760.4,342,,,"Rabindra Bharati University, Kolkata",700050,www.rbu.ac.in,0,1,1,1,0,0,1,5,1,0,1,0,19,1,1962.0,1,1,0,1,281,2288,53,43
281,281,259,"Thavakkara Campus,","Civil Station PO,",100.0,Kannur,346471.61299999995,589,11.8675511,75.3744582,"Kannur University, Kannur",670002,www.kannuruniversity.ac.in,0,1,0,1,0,0,0,6,1,0,0,0,32,1,1996.0,1,1,0,1,282,2877,45,63
282,282,260,"Bastar Vishwavidyalaya, Jagdalpur , Chhattisgarh - INDIA","Bastar Vishwavidyalaya Jagdalpur, Chhattisgarh - INDIA",60.0,"JAGDALPUR , CHHATTISGARH",2858.73,414,,,"Bastar Vishwavidyalaya, Bastar",494001,www.bvvjdp.ac.in,0,1,0,0,0,0,0,0,0,0,1,0,22,0,2008.0,1,1,0,1,283,1845,44,41
283,283,261,Ananthagiri 4th Street,Kodaikanal,128.07,Kodaikanal,6015.0,612,10.230001,77.480001,"Mother Teresa Women's University, Kodaikanal",624101,www.motherteresawomenuniv.ac.in,1,0,1,1,0,1,0,2,1,1,1,0,33,1,1984.0,1,1,0,1,284,2899,32,90
284,284,262,Atrey Layout,Pratap Nagar,142.98,Nagpur,68520.63,505,,,"Datta Meghe Institute of Medical Sciences, Nagpur",440022,www.dmimsu.edu.in,0,1,0,1,0,1,1,19,0,0,0,1,27,1,,1,1,0,1,285,2692,66,40
285,285,263,"5th Mile, Tadong",East Sikkim,,Gangtok,,244,27.33893,88.60651,SHRI RAMASAMY MEMORIAL UNIVERSITY,737102,www.srmus.ac.in,0,1,0,0,0,0,1,2,0,0,1,0,11,1,2013.0,1,1,0,1,286,912,53,17
286,286,264,Taleigao Plateau,Taleigao - 403206,402.78,Goa,167062.0,585,15.2993405,74.123982,"Goa University, Goa",403206,www.unigoa.ac.in,1,0,0,0,0,1,1,3,0,0,1,0,30,1,1985.0,1,1,0,1,287,2129,34,62
287,287,265,Dr. Ram Manohar Lohia  Avadh University,Allahabad Road,145.0,Faizabad,28000.0,177,26.25672,,"Dr. Ram Manohar Lohia  Awadh University, Faizabad",224001,www.rmlau.ac.in,1,0,0,0,0,0,0,4,0,0,0,0,9,1,1975.0,1,1,0,1,288,299,35,8
288,288,266,PO LIMDA,WAGHODIA,102.0,PO LIMDA,241215.86,486,22.28872871,73.36379242,PARUL UNIVERSITY,391760,www.paruluniversity.ac.in,0,0,0,0,0,0,0,26,0,0,0,0,24,1,2003.0,1,1,0,1,289,623,59,10
289,289,267,HQRS: Lumami,P.O- Lumami,802.0,,26514.27,263,26.2257001,94.4851001,Nagaland University,798627,www.nagalanduniversity.ac.in,1,0,1,0,0,1,0,17,0,0,1,0,13,1,1994.0,1,1,0,1,290,2238,74,30
290,290,268,Banda University of Agriculture and Technology,,948.0,Banda,809371.0,170,24.04449,78.96163,"MANYAWAR SHRI KANSHIRAM JI UNIVERSITY OF AGRICULTURE AND TECHNOLOGY, BANDA",210001,www.buat.edu.in,0,1,0,0,0,0,0,2,0,0,1,1,9,1,2010.0,1,1,0,1,291,757,43,17
291,291,269,"Vinayaka Nagar, Cantonment, Bellary-583 105.","Vinayaka Nagar, Cantonment, Bellary-583 105.",95.37,Bellary,19000.0,565,15.65801,76.02457,"Vijayanagara Sri Krishnadevaraya University, Bellary",583105,www.vskub.ac.in,0,1,1,1,0,0,0,2,0,1,1,0,29,1,1995.0,1,1,0,1,292,1011,17,59
292,292,270,5th K.M. Mile Stone,Mainpuri Road,42.36,Shikohabad,24200.0,147,27.124392,78.63499200000003,J S University,283135,www.jsu.ac.in,0,1,0,0,0,0,0,2,0,0,0,0,9,1,2015.0,1,1,0,1,293,514,48,10
293,293,272,"Pawate Nagar, Dharwad",,888.0,Dharwad,106078.0,562,,,"Karnataka University, Dharwad",580001,www.kud.ac.in,1,0,1,1,0,1,1,22,1,0,1,0,29,1,1949.0,1,1,0,1,294,1114,32,34
294,294,273,"bandemedipally, raichurroad",Mahabubnagar,171.0,Mahabubnagar,20000.0,538,16.6716701,78.11244434,"Palamuru University,  Mahabubnagar",509001,www.palamuruuniversity.ac.in,1,0,1,0,0,0,0,2,0,0,1,0,36,1,2008.0,1,1,0,1,295,1355,28,48
295,295,274,Neelbad Road,"Khashra No 13/1/1, Bhauri Village",74.67,Bhopal,40997.0,444,23.29495,77.27309,School of Planning & Architecture Bhopal,462030,www.spabhopal.ac.in,1,1,1,1,0,0,1,3,0,0,1,1,23,1,2008.0,1,1,0,1,296,2742,42,65
296,296,275,JNCASR,Jakkur,52.19,Bangalore,21828.0,572,20.57654,78.45345,"Jawaharlal Nehru Centre for Advanced Scientific Research, Banaglore",560064,www.jncasr.ac.in,1,0,1,0,1,0,0,6,0,0,1,1,29,1,1989.0,1,1,0,1,297,1600,19,84
297,297,276,Velan Nagar  P.V.Vaithiyalingam Road,Pallavaram Chennai  600 117,29.13,Chennai,104507.0,604,12.957751,80.1607397,"Vels Institute of Science, Technology and Advanced Studies, Chennai",600117,www.velsuniv.ac.in,0,1,1,1,0,1,1,9,0,1,1,0,33,1,1992.0,1,1,0,1,298,2166,75,28
298,298,277,Mardi Road,Near Tapowan Gate,470.43,Amravati,64977.56,503,20.92583,77.76472,"Sant Gadge Baba Amravati University, Amravati",444602,www.sgbau.ac.in,1,1,0,0,0,1,0,5,0,0,1,0,27,1,1983.0,1,1,0,1,299,2011,72,27
299,299,278,"Canchipur, Imphal",Pin- 795003,287.0,Imphal,73426.0,277,24.450567000000003,93.560017,"Manipur University, Imphal",795003,www.manipuruniv.ac.in,1,1,1,1,0,1,1,7,0,0,1,0,14,1,1980.0,1,1,0,1,300,1386,33,42
300,300,279,"Agalakote, B H Road, Tumkur",,20.0,Tumkur,1000.0,571,,,Sri Siddharatha Acedemy of Higher Education,572107,www.sahetumkur.ac.in,0,0,0,0,1,1,0,0,0,0,0,0,29,0,2008.0,1,1,0,1,301,692,52,13
301,301,280,"Rukmini Knowledge Park, Kattigenahalli,",Yelahanka,37.0,BANGALORE,35266.01,572,13.11001,77.63001,"REVA UNIVERSITY, BANGALORE",560064,www.reva.edu.in,0,1,0,0,0,0,1,2,0,0,1,0,29,1,2013.0,1,1,0,1,302,848,28,30
302,302,281,"opp. Mahaveer Marg,",Masab Tank,3.7,Hyderabad,12220.0,537,17.437001000000002,78.449201,Jawarharlal Nehru Architecture and Fine Art University Hyderabad,500028,www.jnafau.ac.in,0,1,0,0,0,0,1,1,0,0,1,1,36,1,1961.0,1,1,0,1,303,2602,21,123
303,303,282,"Gopinath Bordoloi Nagar , Guwahati - 781014",,617.0,Guwahati,160800.0,321,,,"Gauhati University, Guwahati",781014,www.gauhati.ac.in,1,0,1,0,0,1,1,21,1,0,1,0,18,1,1948.0,1,1,0,1,304,2403,15,160
304,304,283,Maharajpura,,102.0,Gwalior,40689.57,421,26.272715,78.228389,"Amity University, Gwalior",474005,www.amity.edu/gwalior,0,1,1,0,0,1,0,2,0,0,1,0,23,1,2010.0,1,1,0,1,305,1164,46,25
305,305,284,"Sherganj,",Panna Road,52.0,Satna,20437.0,429,24.16001,80.83333,"AKS UNIVERSITY, SATNA",485001,www.aksuniversity.ac.in,0,1,0,0,0,0,0,0,0,0,1,0,23,0,2012.0,1,1,0,1,306,2604,71,36
306,306,285,"Guru Kashi University, Sardulgarh Road, Talwandi Sabo",,45.0,Talwandi Sabo,72820.0,46,29.9622244,75.1246056,GURU KASHI UNIVERSITY,151302,www.gurukashiuniversity.in,0,1,0,0,0,0,0,5,0,1,1,0,3,1,2011.0,1,1,0,1,307,1564,65,24
307,307,286,"Chepauk Campus, Chennai-600005",Tamil Nadu,11.503,chennai,130125.83,603,,,"Madras University, Chennai",600005,www.unom.ac.in,0,0,0,0,1,1,1,6,1,0,1,0,33,1,1857.0,1,1,0,1,308,2480,70,35
308,308,288,"Sardar Vallabhbhai National Institute of Technology, Surat","Sardar Vallabhbhai National Institute of Technology, Surat",250.0,SURAT,167401.0,492,21.1664331,72.68233790000002,"Sardar Vallabhbhai National Institute of Technology, Surat",395007,http://www.svnit.ac.in,1,0,1,1,0,1,1,8,0,0,1,1,24,1,1961.0,1,1,0,1,309,2673,52,51
309,309,289,Deccan College Road,Yerwada,115.0,Pune,18290.98,521,37.56789000000001,97.56789,"Deccan College Postgraduate & Research Institute, Pune",411006,www.deccancollegepune.org,1,0,1,1,0,1,1,4,0,0,0,0,27,1,1939.0,1,1,0,1,310,1612,56,28
310,310,290,Civil Lines,Gorakhpur,190.96,Gorakhpur,129296.0,188,26.758801,83.369701,"Deen Dayal Upadhyay Gorakhpur University, Gorakhpur",273009,www.ddugu.edu.in,1,1,1,1,0,0,1,6,0,0,1,0,9,1,1956.0,1,1,0,1,311,318,26,12
311,311,291,"188, Raja S.C. Mallik Road",Kolkata - 700032,87.6,Kolkata,245000.0,343,22.560001,88.410003,"Jadavpur University, Kolkata",700032,http://www.jaduniv.edu.in,1,1,1,1,0,1,1,14,0,1,1,0,19,1,1905.0,1,1,0,1,312,1603,58,27
312,312,292,Kerwa Dam Road,,40.0,Bhopal,24669.0,444,,,"National Law Institute University, Bhopal",462044,www.nliu.ac.in,0,1,0,0,0,0,0,4,1,0,1,1,23,1,1997.0,1,1,0,1,313,626,36,17
313,313,293,"Saipura,",Sanganer,33.8,Jaipur - 302029,30633.296,110,,,"Homoeopathy University, Jaipur",302029,www.homoeopathyuniversity.org   & www.homoeopathyuniversity.com,0,1,0,0,0,0,0,2,0,0,0,1,8,1,2009.0,1,1,0,1,314,977,20,48
314,314,294,"Makhnumajra, Baddi. 173205",District Solan. (H.P),26.0,Baddi,77681.0,31,,,"Baddi University of Emerging Sciences and Technology, Budha (Makhnumajra), Solan",173205,www.baddiuniv.ac.in,0,1,0,0,0,0,0,4,0,0,0,1,2,1,2002.0,1,1,0,1,315,1517,36,42
315,315,295,Karnataka State Law University,Navanagar,54.0,Hubli,10000.0,562,,,"Karnataka State Law University, Hubli",580025,www.kslu.ac.in,0,1,0,1,0,0,1,3,0,0,1,1,29,1,2009.0,1,1,0,1,316,712,67,10
316,316,296,University of Rajasthan,J.L.N. Marg,435.03,Jaipur,,110,26.88001,75.81000999999998,"Rajasthan University, Jaipur",302004,www.uniraj.ac.in,1,0,0,1,0,0,0,18,0,0,1,0,8,1,1947.0,1,1,0,1,317,1804,31,58
317,317,297,"Post Box No.-9, Head Post Office, Solan",Solan,20.1,Solan (H.P.) - 173212,52045.0,31,30.90448,77.09673000000002,"Shoolini University of Bio Technology and Management Sciences, Oachghat, Solan",173212,www.shooliniuniversity.com,0,1,0,0,0,0,1,7,0,0,0,1,2,1,2009.0,1,1,0,1,318,2478,54,45
318,318,299,Nagarbhavi,,23.0,Bengaluru,37327.0,572,12.970001,77.960001,"National Law School of India University, Bangalore",560072,www.nls.ac.in,0,1,0,0,0,0,1,10,1,0,1,1,29,1,1986.0,1,1,0,1,319,2775,42,66
319,319,300,Bhatewar - 313601,Tehsil - Vallabhnagar,100.0,,68533.0,130,24.590001,73.680001,"Sir Padampat Singhania University, Udaipur",313601,http://www.spsu.ac.in,0,1,1,1,0,0,0,9,0,1,1,0,8,1,2007.0,1,1,0,1,320,1889,39,48
320,320,301,"Laliya Ka Vas, P.O. Mahapura",Ajmer Road,30.0,Jaipur,33299.74,110,26.90001,75.80001,JK LAKSHMIPAT UNIVERSITY,302026,www.jklu.edu.in,0,1,1,1,0,0,0,2,0,1,1,0,8,1,2011.0,1,1,0,1,321,2196,36,61
321,321,302,"NH 15, JAISALMER ROAD","NH-15, JAISALMER ROAD",704.32,BIKANER,10485.51,101,28.00001,73.100009,"Maharaja Ganga Singh University, Bikaner",334004,www.mgsubikaner.ac.in,0,1,0,1,0,0,0,0,0,0,0,0,8,0,2003.0,1,1,0,1,322,2080,16,130
322,322,303,"Nazrul Road, Kalla More, P.O. - Kalla C.H.",Near NH2 Bypass,16.0,Asansol,8000.0,335,23.407604,86.589902,"KAZI NAZRUL UNIVERSITY, ASANSOL",713340,http://www.knuedu.in,0,1,0,0,0,0,0,0,0,0,0,0,19,0,2012.0,1,1,0,1,323,511,47,10
323,323,304,"869,'E' D.Y.Patil Vidyanagar,Line Bazar","Kasaba Bawada,Kolhapur-416006",27.0,Kolhapur,449346.0,530,16.70001,74.21001,"D.Y. Patil Educational Society , Kolhapur",416006,www.dypatilunikop.org,0,1,0,0,0,1,0,5,0,0,0,0,27,1,1989.0,1,1,0,1,324,2194,47,46
324,324,305,"Rajah Rajah Narendra Nagar, Nannaya POST",Rajanagaram,96.27,Rajamahendravaram,5149.0,545,16.98001,81.78001,"Adikavi Nannaya University, Rajahmundry, East Godawari",533296,www.nannayauniversity.info,1,0,0,0,0,0,0,2,0,0,1,0,28,1,2006.0,1,1,0,1,325,2718,58,46
325,325,306,Priyadarsini Hills. P.O,Kottayam,110.0,Kottayam,66143.43,597,9.60001,76.50001,"Mahatma Gandhi University, Kottayam",686560,www.mgu.ac.in,0,1,0,1,0,1,1,4,1,0,0,0,32,1,1983.0,1,1,0,1,326,2560,22,116
326,326,307,Sri Chandrasekharendra Saraswathi Vishwa Mahavidyalaya University,Enathur,50.4,Kancheepuram,268726.0,604,12.80001,79.70000999999998,"Sri Chandrasekharendra Saraswathi Vishwa Mahavidyalaya, Kancheepuram",631561,http://www.kanchiuniv.ac.in,1,1,0,0,0,1,0,8,0,0,0,0,33,1,1984.0,1,1,0,1,327,278,17,16
327,327,308,Bharathi Park Road,,110.98,Coimbatore,82.3446,632,,,"Avinashilingam Institute for Home Science & Higher Education for Women, Coimbatore",641043,www.avinuty.ac.in,0,1,1,1,0,1,1,2,0,0,1,1,33,1,1957.0,1,1,0,1,328,2490,45,55
328,328,309,"University House, Gnanagangothri Campus,","New BEL Road, M S R Nagar,",74.9,Bangalore,700000.0,572,13.14535,77.341124,"M.S. RAMAIAH UNIVERSITY OF APPLIED SCIENCES, BANGALORE",560054,www.msruas.ac.in,1,1,0,1,0,0,1,2,0,0,0,0,29,1,2013.0,1,1,0,1,329,2160,56,38
329,329,310,"Napaam, Tezpur,","Assam, Pin-784028",262.0,Tezpur,108440.68,306,26.69837,92.834451,"Tezpur University, Tezpur",784028,www.tezu.ernet.in,1,0,0,1,0,1,1,14,1,0,0,0,18,1,1994.0,1,1,0,1,330,1961,75,26
330,330,311,Ferozepur Road,Ludhiana,282.55,Ludhiana,55350.0,41,30.900971,75.8572698,"Guru Angad Dev Veterinary & Animal Sciences University, Ludhiana",141004,www.gadvasu.in,0,1,1,1,0,1,1,4,0,1,1,1,3,1,2005.0,1,1,0,1,331,342,45,7
331,331,312,Trichy Road,Thanjavur 613 010,824.93,Thanjavur,39200.78,620,10.00001,79.00001,"Tamil Univesity, Thanjavur",613010,www.tamiluniversity.ac.in,1,0,0,1,0,0,0,4,1,0,1,1,33,1,1981.0,1,1,0,1,332,941,34,27
332,332,313,"510, Society Area, Clement Town, Dehradun",,18.5341929,Dehradun,47414.26,60,30.316494,78.03219200000002,GRAPHIC ERA HILL UNIVERSITY,248002,http://www.gehu.ac.in,1,0,0,0,0,0,1,2,0,0,0,0,5,1,2011.0,1,1,0,1,333,2915,69,42
333,333,314,Tejaswini Hills,"Periye (PO),",310.0,Kasaragod,9232.0,588,12.39177,75.09819,"Central Univeristy of Kerala, Kasaragod",671316,www.cukerala.ac.in,1,0,1,1,0,0,1,8,0,0,1,0,32,1,2009.0,1,1,0,1,334,1676,39,42
334,334,315,Lawley Road,,678.49,Coimbatore,498750.0,632,11.011695,76.935521,"Tamilnadu Agricultural University, Coimbatore",641003,www.tnau.ac.in,0,1,0,0,0,1,1,12,1,0,0,1,33,1,1905.0,1,1,0,1,335,1898,57,33
335,335,316,Lodhipur-Rajput,Delhi Road,51.74,Moradabad,75000.0,135,,,"IFTM University, Moradabad",244102,www.iftmuniversity.ac.in,0,1,0,0,0,0,0,5,0,0,0,0,9,1,1996.0,1,1,0,1,336,1202,27,44
336,336,317,"SRM NAGAR,",KATTANKULATHUR,200.95,CHENNAI,990000.0,604,12.808001,80.045001,"S.R.M. Institute of Science & Technology, Chennai",603203,www.srmuniv.ac.in,0,1,0,0,0,1,1,39,0,0,0,0,33,1,1985.0,1,1,0,1,337,525,49,10
337,337,319,"Chitrakoot,",,30.404,chitrakoot,30911.17,171,25.00001,80.00001,Jagadguru Rambhadracharya Handicapped University,210204,www.jrhu.com,1,1,0,0,0,1,0,3,0,0,1,1,9,1,2001.0,1,1,0,1,338,2909,63,46
338,338,320,"PH No. 137, Village - Upparwara","Tehsil - Abhanpur,",25.0,Naya Raipur,11148.36,410,,,ITM UNIVERSITY,492002,www.itmuniversity.org,0,1,0,0,0,0,0,0,0,0,0,0,22,0,2012.0,1,1,0,1,339,2646,39,67
339,339,321,Ashok Raj Path,,181.58,Patna,299467.37,230,25.61701,85.16701,"Patna University, Patna",800005,patnauniversity.ac.in,1,0,0,0,0,0,0,9,1,0,0,0,10,1,1917.0,1,1,0,1,340,268,27,9
340,340,322,"Needam Road, Naka Chandrabadni Chawraha, Gwalior",,21.0,Gwalior,2787.09,421,26.00001,78.00001,"Raja Mansingh  Tomar Music & Arts University, Gwalior",474002,www.rmtmusicandartsuniversity.com,0,1,0,0,0,0,0,0,0,0,1,1,23,0,2008.0,1,1,0,1,341,2286,19,120
341,341,323,AJ  COLLEGE CAMPUS,RAJUPEATA,0.0,MACHILIPATNAM,0.0,547,16.171201,81.131201,"Krishna University, Machhlipattanam",521001,www.krishnauniversity.in,1,0,0,1,0,0,0,0,0,0,1,0,28,0,2008.0,1,1,0,1,342,1282,55,23
342,342,324,University Campus,Dr. Babasaheb Ambedkar Marathwada University,724.25,Aurangabad,500.0,515,19.906456,75.313671,"Dr. Babasaheb Ambedkar Marathwada University, Aurangabad",431001,www.bamu.ac.in,0,1,1,1,0,1,1,10,0,0,1,0,27,1,1958.0,1,1,0,1,343,719,27,26
343,343,325,GANDHI CHOWK,Gandhi Chowk,2.0,Hamirpur,0.0,28,31.6861745,76.5213092,"Himachal Pradesh Technical University, Hamirpur",177001,www.himtu.ac.in,0,0,0,0,0,0,0,0,0,0,0,0,2,0,2010.0,1,1,0,1,344,1802,62,29
344,344,326,"Turari, NH-75, Jhansi Road,","Gwalior, M.P., India",85.73,Gwalior,100000.0,421,26.00001,78.00001,"ITM UNIVERSITY, GWALIOR",474001,www.itmuniversity.ac.in,0,1,0,1,0,0,1,6,0,0,1,0,23,1,2011.0,1,1,0,1,345,1084,43,25
345,345,327,"Aligarh Muslim University, Aligarh",University Road,1155.0,Aligarh,,143,27.88333,78.08333,"Aligarh Muslim University, Aligarh",202001,www.amu.ac.in,0,1,1,0,0,0,1,18,1,0,1,0,9,1,1875.0,1,1,0,1,346,799,56,14
346,346,328,"Post Box No.62,","Tamaka,",73.0,Kolar-563 101,95045.0,581,13.1357369,78.1325603,"Sri Devraj Urs Acaedmy of Highehr Education and Research, Kolar",563101,www.sduu.ac.in,1,0,0,0,1,1,0,0,0,0,1,1,29,0,1986.0,1,1,0,1,347,455,61,7
347,347,329,"P.O.Box.No.7, Venkataramannagudem",,216.0,Tadepalligudem,80929.0,546,16.833333,81.50001,Dr Y S R Horticulture University,534101,www.drysrhu.edu.in,0,1,0,0,0,0,1,5,0,0,1,1,28,1,2007.0,1,1,0,1,348,253,24,10
348,348,330,"Shobha Nagar, N. H. 11C,",,60.67,Jaipur-303121,150000.0,110,27.18689,75.95309,"NIMS University, Jaipur",303121,www.nmsuniversity.org,0,1,0,0,0,0,1,17,1,0,1,0,8,1,2008.0,1,1,0,1,349,2953,63,46
349,349,331,Calicut University PO,Malappuram,546.73,Kozhikkode,,592,11.135201,75.893301,"Calicut University, Thenhipalem, Malapuram",673635,http//www.university of calicut.info,1,0,0,0,0,1,0,11,1,0,0,0,32,1,1968.0,1,1,0,1,350,1189,64,18
350,350,334,"Chhattisgarh Kamdhenu Vishwavidyalya,",,,Durg,,409,21.45891,81.57894,CHHATTISGARH KAMDHENU VISHWAVIDALAYA,491001,www.cgkv.ac.in,0,0,0,0,0,0,0,0,0,0,0,1,22,0,2012.0,1,1,0,1,351,605,74,8
351,351,335,Amrita Nagar Post,Ettimadai,420.0,Coimbatore,233464.44,632,10.540098,76.535841,"Amrita Vishwa Vidyapeetham, Coimbatore",641112,www.amrita.edu,0,1,1,1,0,1,1,9,0,1,1,0,33,1,1994.0,1,1,0,1,352,428,67,6
352,352,336,"Bareilly-Lucknow, NH-24, Near Transport Nagar, bareilly (U.P.)","B-186, Civil Lines, Bareilly (U.P.)",70.0,Bareilly,55796.0,150,,,"Invertis University, Bareily",243123,www.invertisuniversity.ac.in,0,1,0,1,0,0,1,7,0,0,0,0,9,1,1998.0,1,1,0,1,353,638,74,8
353,353,337,Swami Ram Nagar,P.O. Jolly Grant,55.37,Dehradun,15687.28,60,,,SWAMI RAMA HIMALAYAN UNIVERSITY,248016,www.srhu.edu.in,0,1,0,0,0,0,0,2,0,0,0,1,5,1,2013.0,1,1,0,1,354,1977,56,35
354,354,338,Maulana Mohammad Ali Jauhar Marg,Jamia Nagar,239.04,New Delhi,128191.19,94,28.5613432,77.2814605,Jamia Millia Islamia University,110025,http://jmi.ac.in,1,1,1,1,0,1,1,13,0,0,1,0,7,1,1920.0,1,1,0,1,355,843,69,12
355,355,339,"D.A.V.V. , Nalanda Campus, R.N.T. Marg, Indore-452001(M.P.)","D.A.V.V. , Nalanda Campus, R.N.T. Marg, Indore-452001(M.P.)",371.59,Indore,111200.0,439,22.71683,75.87881,"Devi Ahilya Vishwavidyalaya, Indore",452001,www.dauniv.ac.in,0,1,1,1,0,1,0,12,1,1,1,0,23,1,1964.0,1,1,0,1,356,2863,28,102
356,356,340,Cochin University P.O,,224.9,Kochi,563994.0,595,,,"Cochin University of Science & Technology, Kochi",682022,www.cusat.ac.in,1,0,1,1,0,0,1,14,0,0,1,1,32,1,1971.0,1,1,0,1,357,481,47,10
357,357,341,Raja Rammohunpur,P.O.: North Bengal University,333.95,Siliguri,129978.91,327,26.00001,88.00001,"North Bengal University, Darjeeling",734013,www.nbu.ac.in,1,0,1,0,0,1,0,12,1,0,1,0,19,1,1962.0,1,1,0,1,358,1541,71,21
358,358,344,"Registrar,","SDAU,  Teh- Dantiwada,",2975.0,Sardarkrushinagar,2650000.0,469,23.01211,72.33211,"Sardarkrushinagar Dantiwada Agricultural University, Banaskantha",385506,www.sdau.edu.in,0,1,0,0,0,1,1,13,0,0,1,1,24,1,2004.0,1,1,0,1,359,1238,17,72
359,359,345,Gayatrikunj,Shantikunj-249411,75.37,Hardwar,64100.0,68,,,"Dev Sanskriti Vishwavidyalaya, Gayatrikunj",249411,www.dsvv.ac.in,1,0,1,0,1,0,1,5,1,1,1,0,5,1,2002.0,1,1,0,1,360,2047,61,33
360,360,346,"Plot No. 116, Sector XI,","M.V.P. Colony,",15.54,VISAKHAPATNAM,3252.0,544,,,"A.P. University of Law, Vishakhapatnam",530017,https://dsnlu.ac.in,0,1,0,0,0,1,0,0,0,0,0,1,28,0,2008.0,1,1,0,1,361,2681,75,35
361,361,347,"Yupia, District  Papum Pare,",Arunachal Pradesh  791112,301.0,Itanagar,0.0,248,28.2179994,94.7277528,National Institute of Technology Arunachal Pradesh,791112,www.nitap.in,1,0,1,0,0,0,0,7,0,0,1,0,12,1,2010.0,1,1,0,1,362,2818,15,187
362,362,348,"GIRLS HOSTEL BUILDING, BABU SHOBHA RAM ARTS COLLEGE CAMPUS",ALWAR,,ALWAR,,104,27.34001,76.38001,RAJ RISHI BHARTRIHARI MATSYA UNIVERSITY,301001,www.rrbmuniv.ac.in,0,0,0,0,0,0,0,0,0,0,0,0,8,0,2012.0,1,1,0,1,363,2047,33,62
363,363,349,"26/C, Electronics City,",Hosur Road,10.01,BENGALURU,23993.14,583,,,"International Institute of Information Technology, Bangalore",560100,www.iiitb.ac.in,1,0,0,0,0,1,0,4,0,0,0,1,29,1,1999.0,1,1,0,1,364,667,26,25
364,364,350,"Periyar E.V.R. Salai,",Maduravoyal,231.33,Chennai,129033.0,602,,,"M.G.R. Educational and Research Institute, Chennai",600095,www.drmgrdu.ac.in,1,0,0,0,0,1,1,6,0,1,1,0,33,1,1988.0,1,1,0,1,365,790,46,17
365,365,351,Vidyanagar,University Campus,853.0,Kolhapur,133913.25,530,16.420001,74.160001,"Shivaji University, Kolhapur",416004,www.unishivaji.ac.in,1,0,1,1,0,1,1,9,1,0,1,0,27,1,1962.0,1,1,0,1,366,1123,24,46
366,366,352,Chaltlang,,170.0,Aizawl,,283,23.74592597,92.71557684,National Institute of Technology Mizoram,796012,www.nitmz.ac.in,1,0,0,1,0,0,0,4,0,0,1,1,15,1,2010.0,1,1,0,1,367,907,15,60
367,367,354,Makkawala Greens,Musssoorie Diversion Road,10.17,Dehradun,32413.0,60,30.399604,78.078005,IMS UNISON UNIVERSITY,248009,www.iuu.ac,0,1,0,0,0,0,1,2,0,0,0,0,5,1,1996.0,1,1,0,1,368,246,52,4
368,368,355,"P.O. Pundibari, Dist. Coochbehar, Pin code- 736165.",,331.0,Coochbehar,33818.89,329,26.404432,89.38368340000002,"Uttar Banga Krishi Vishwavidyalaya, Cooch Behar",736165,www.ubkv.ac.in,0,1,1,0,0,1,0,5,0,0,1,1,19,1,1979.0,1,1,0,1,369,430,45,9
369,369,356,"17 KM Stone,NH #2,Mahura-Delhi Road",Post- Chaumuhan,74.55,Mathura,175052.2,145,,,"G.L.A University, Mathura",281406,www.gla.ac.in,1,1,0,0,0,0,0,15,0,0,0,0,9,1,1998.0,1,1,0,1,370,826,69,11
370,370,357,"PO BOX 21,DHARAMSHALA,DISTRICT KANGRA",HIMACHAL PRADESH -176215,1040.0,DHARAMSHALA,,24,,,"Central University of Himachal Pradesh, Dharmshala, Kangra",176215,www.cuhimachal.ac.in,0,1,0,1,0,0,0,2,0,0,0,0,2,1,2009.0,1,1,0,1,371,1262,70,18
371,371,358,JAUHAR NAGAR,POST - SIGAN KHERA,98.0,RAMPUR,33214.3,136,28.523626,79.012283,"Mohammad Ali Jauhar University, Rampur",244901,www.jauharuniversity.edu.in,0,1,0,1,0,0,0,2,0,0,0,0,9,1,2005.0,1,1,0,1,372,1988,73,27
372,372,359,Jnana Shakti Campus (Torvi),Athani Road,281.0,Bijapur,410105.8,557,,,"Karnataka State Women University, Bijapur",586109,www.kswub.ac.in,0,1,1,0,0,0,0,3,0,0,1,0,29,1,2003.0,1,1,0,1,373,1387,70,19
373,373,360,MUSSOORIE DIVERSION ROAD,MAKKAWALA PO BHAGWANTPUR,10.35,DEHRADUN,70198.5,60,30.3986363,78.0747635,DIT UNIVERSITY,248009,www.dituniversity.edu.in,1,0,0,0,0,0,1,10,0,0,1,0,5,1,1998.0,1,1,0,1,374,1103,55,20
374,374,361,Sector 12,,277.0,Chandigarh,139820.0,55,,,Post Graduate Institute of Medical Sciences,160012,pgimer.edu.in,0,0,0,0,1,0,0,8,0,0,0,1,4,1,1962.0,1,1,0,1,375,945,31,30
375,375,362,National Institute of Technology Puducherry,"ARIGNAR ANNA GOVERNMENT ARTS COLLEGE CAMPUS, KARAIKAL",258.0,KARAIKAL-609605,,637,10.91701,79.83301,National Institute of Technology Puducherry,609605,www.nitpy.ac.in,1,0,1,1,0,0,1,7,0,0,1,1,34,1,2010.0,1,1,0,1,376,1903,34,55
376,376,363,Ravenshaw University,College Square - 753003,87.0,Cuttack,116509.0,381,20.50001,85.830001,"Ravenshaw University, Cuttak",753003,www.ravenshawunivesity .ac.in,1,0,1,0,1,0,0,11,0,1,1,0,21,1,1868.0,1,1,0,1,377,2577,39,66
377,377,364,"Kling Road, Baridua",9th Mile,400.0,Technocity,10219.0,297,25.9631115,91.922131,UNIVERSITY OF SCIENCE AND TECHNOLOGY,793101,www.ustm.ac.in,1,1,1,1,0,0,0,4,0,1,1,0,17,1,2011.0,1,1,0,1,378,2733,34,80
378,378,365,"12 LB Block, Sector III, Salt Lake City,",,4.881,Kolkata,24282.9,342,22.341001,88.221001,"The West Bengal National University of Juridicial Sciences, Kolkata",700098,www.nujs.edu,0,1,0,1,1,1,1,2,0,0,1,1,19,1,1999.0,1,1,0,1,379,1693,52,32
379,379,366,"19, 'Eknath Bhavan', Gavipuram Circle, Kempegowda Nagar,","19, 'Eknath Bhavan', Gavipuram Circle, Kempegowda Nagar,",8.17,Bangalore 560 019,18466.0,583,23.250001,77.69426,"Swami Vivekananda Yoga Anusandhana Samsthan, Bangalore",560019,www.svyasa.edu.in,0,1,0,0,0,1,1,11,1,1,1,0,29,1,2002.0,1,1,0,1,380,1518,66,23
380,380,367,Village Mugaliachap,Tehsil Huzur,200.0,Bhopal,10000.0,444,23.25001,77.44167,"JAGRAN LAKECITY UNIVERSITY, BHOPAL",462044,www.jlu.edu.in,0,1,0,1,0,0,1,0,0,0,0,0,23,0,2013.0,1,1,0,1,381,1916,57,33
381,381,368,Kurukshetra 136119,,400.0,Kurukshetra,1700000.0,72,,,"Kurukshetra University, Kurukshetra",136119,www.kuk.ac.in,1,1,0,1,0,1,0,22,1,0,1,0,6,1,1956.0,1,1,0,1,382,2421,60,40
382,382,370,DICHPALLY,NIZAMABAD,577.0,NIZAMABAD,18465.0,533,18.6147825,78.21201020000002,"Telangana University, Nizamabad",503322,www.telanganauniversity.ac.in,0,1,0,0,0,1,0,4,0,0,1,0,36,1,2006.0,1,1,0,1,383,406,51,7
383,383,371,Village Kathadih,Post - Sunder Nagar,65.0,Raipur,13790.0,410,21.12101,81.10213,"Kushabhau Thakre Patrakarita Avam Jansanchar Vishwavidyalaya, Raipur",492013,ktujm.ac.in,1,0,0,0,0,0,0,2,0,0,1,1,22,1,2005.0,1,1,0,1,384,2372,60,39
384,384,372,"Lothian Road, Kashmere Gate",Kashmere Gate,6.0,Delhi,7159.0,91,28.6676714,77.228211,Bharat Ratana Dr. B. R. Ambedkar University,110006,www.aud.ac.in,0,1,1,0,1,1,1,1,0,0,1,0,7,1,2008.0,1,1,0,0,385,2814,75,37
385,385,373,"SLIET Campus, Longowal","SLIET Campus, Longowal",451.0,Longowal,143688.07,53,30.19851,75.68191,"Sant Longowal Institute of Engg. & Tech., Longowal",148106,www.sliet.ac.in,0,1,1,1,0,1,0,14,0,0,1,1,3,1,1989.0,1,1,0,0,386,2373,25,94
386,386,374,Deemed University,Near Balaji Colony,42.0,Tirupati,36500.0,554,,,"Rastriya Sanskrit Vidyapeeth, Tirupathi",517507,www.rsvidyapeetha.ac.in,1,0,1,0,0,1,1,9,1,0,0,1,28,1,1961.0,1,1,0,0,387,2792,36,77
387,387,375,"PEC University of Technology, Sector -12,  Chandigarh - 160012",,146.0,Chandigarh,113594.0,55,,,"PEC University of Technology, Chandigarh",160012,www.pec.ac.in,0,1,1,0,0,1,1,6,0,0,1,1,4,1,1921.0,1,1,0,0,388,660,59,11
388,388,376,Alipiri Road,"The Director-cum-Vice Chancellor, SVIMS, Tirupati",107.0,Tirupati,145000.0,554,,,"Sri Venkateswara Institute of Medical Sciences, Tirupathi",517507,www.svimstpt.ap.nic.in,1,0,0,0,0,0,0,8,0,0,1,1,28,1,1993.0,1,1,0,0,389,665,20,33
389,389,377,mahatma gandhi kashi vidyapith,varanasi-221002,48.86,varanasi,112547.0,197,25.3176452,82.97391440000001,"Mahatma Gandhi Kashi Vidyapeeth, Varanasi",221002,www.mgkvp.ac.in,0,1,1,1,0,1,0,4,0,0,0,0,9,1,1921.0,1,1,0,0,390,1471,24,61
390,390,378,"Sohna Road,",,24.39,Gurgaon,48442.96,86,28.2712427,77.06570129999999,"K.R. MANGALAM UNIVERSITY, GURGAON",122103,www.krmangalam.edu.in,0,1,0,0,0,0,1,2,0,0,0,0,6,1,2013.0,1,1,0,0,391,1469,36,40
391,391,379,TATIBANDH,G. E. ROAD,103.63,RAIPUR,177881.0,410,21.15233,81.34449000000002,"ALL INDIA INSTITUTE OF MEDICAL SCIENCES, RAIPUR",492099,www.aiimsraipur.edu.in,0,1,0,1,0,0,0,2,0,0,0,1,22,1,2012.0,1,1,0,0,392,2007,26,77
392,392,380,GREEN FIELDS,TADEPALLI POST,43.56,VADDESWARAM VILLAGE,101939.0,548,16.442249,80.62219,"Koneru Lakshmaiah Education Foundation,Guntur",522502,www.kluniversity.in,0,1,0,0,0,1,1,6,0,1,0,0,28,1,1980.0,1,1,0,0,393,1261,48,26
393,393,381,J.K. HOSPITAL & L.N. MEDICAL COLLEGE CAMPUS,KOLAR ROAD,55.0,BHOPAL,79419.83,444,23.10001,77.25001,LNCT UNIVERSITY,462042,www.lnctu.ac.in,0,1,0,1,0,0,0,4,0,0,1,0,23,1,2015.0,1,1,0,0,394,2169,72,30
394,394,382,"Sri Venkateswara University, Tirupati",,924.68,Tirupati,236246.51,554,,,"Sri Venkateswara University, Tirupathy",517502,www.svuniversity.in,0,1,0,0,0,1,1,6,1,0,1,0,28,1,1954.0,1,1,0,0,395,710,59,12
395,395,383,"Sub-Post Office, Katra",Pin-182320,369.9,Katra,125089.0,20,32.98001,74.95000999999998,"Shri Mata Vaishno Devi University, Jammu",182320,http://smvdu.net.in,1,0,1,0,0,0,0,7,0,0,1,1,1,1,1999.0,1,1,0,0,396,283,42,6
396,396,384,Lower Sichey,Ranka Road,11.49,Gangtok,5016.764,244,27.330001,88.620001,"The Institute of Chartered Financial Analysts of India University, Sikkim",737101,www.iusikkim.edu.in,0,1,0,0,0,0,1,0,1,0,0,0,11,0,2004.0,1,1,0,0,397,779,40,19
397,397,385,V.P.O. SAHAURAN,TEHSIL KHARAR,35.1,KHARAR,56000.0,52,30.7828312,76.61461,RAYAT BAHRA UNIVERSITY,140104,www.rayatbahrauniversity.edu.in,0,1,0,1,0,0,0,2,0,0,0,0,3,1,2014.0,1,1,0,0,398,328,45,7
398,398,386,"N.H. 11,",LAKSHMANGARH,265.0,LAKSHMANGARH,111440.0,111,23.250001,75.25672,"Mody Institute of Technology & Science, Sikar",332311,www.modyuniversity.ac.in,0,1,1,0,0,1,1,9,0,0,0,0,8,1,2004.0,1,1,0,0,399,1576,72,21
399,399,387,Yamuna Expressway Greater Noida,Uttar Pradesh,511.0,Gautam Buddha Nagar,,141,28.4197675,77.5246795,"Gautam Buddha University, Greater Noida, Gautam Budh Nagar",201312,www.gbu.ac.in,0,1,0,1,0,0,1,15,0,0,0,0,9,1,2002.0,1,1,0,0,400,1049,30,34
400,400,388,SAKET NAGAR,,158.0,BHOPAL,250000.0,444,23.15001,77.25001,"ALL INDIA INSTITUTE OF MEDICAL SCIENCES, BHOPAL",462020,aiimsbhopal.edu.in,0,1,0,0,0,0,0,3,0,0,0,1,23,1,2012.0,1,1,0,0,401,734,70,10
401,401,389,Rajawal Road,Central Hope Town,25.0,Dehradun,23226.0,60,,,"Institute of Chatertered Financial Analysts of India, Dehradun",248197,www.iudehradun.edu.in,0,1,0,1,0,0,1,0,1,0,0,0,5,0,2003.0,1,1,0,0,402,1078,51,21
402,402,390,Gurukula Kangri Vishwavidyalaya,P.O. Gurukula Kangri,229.0,Haridwar,80936.37,68,29.96001,78.16001,"Gurukul Kangri Vishwavidyalaya, Haridwar",249404,www.gkv.ac.in,1,1,0,1,0,1,1,4,0,0,0,0,5,1,1902.0,1,1,0,0,403,2493,66,37
403,403,391,"P.o.- ENGINEERING COLLEGE, Burla, SAMBALPUR","ODISHA, INDIA-768018",166.48,SAMBALPUR,76040.0,372,,,"Veer Surendra Sai University of Technology, Sambalpur",768018,www.vssut.ac.in,0,1,1,0,0,1,0,11,0,0,1,1,21,1,1956.0,1,1,0,0,404,1535,56,27
404,404,392,"Nauni, Tehsil Solan ,District Solan",Himachal Pradesh,2450.0,Solan,69000.0,31,31.27771,76.94373,"Dr. Y.S. Parmar University of Horticulture and Forestry, Solan",173230,www.yspuniversity.ac.in,1,1,1,1,0,1,1,14,0,0,1,1,2,1,1985.0,1,1,0,0,405,2321,30,77
405,405,393,City Campus,Masna Road,37.0,Bathinda,167106.0,46,30.1712833,74.96639859999998,"Central University of Punjab, Bathhinda",151001,www.cup.ac.in,1,0,1,1,1,0,0,9,0,1,0,0,3,1,2009.0,1,1,0,0,406,1616,69,23
406,406,394,Periyar Palkalai Nagar,Salem - 636 011,93.61,Salem,24.86479,608,11.664325,78.14601409999999,"Periyar University, Salem",636011,www.periyaruniversity.ac.in,1,0,1,1,0,1,1,2,1,1,1,1,33,1,1997.0,1,1,0,0,407,328,63,5
407,407,395,"kadaganchi, Aland Road",Kalaburagi Dist.,654.0,Kalaburagi Dist.- 585367,27386.0,579,17.432044,76.67388299999998,"Central University of Karnataka, Gulbarga",585367,www.cuk.ac.in,1,1,1,1,0,0,1,7,0,1,1,0,29,1,2009.0,1,1,0,0,408,2407,24,100
408,408,396,"Energy Acres, P.O. Bidholi",Via Prem Nagar,30.0,Dehradun,29.0,60,,,"University of Petroleum and Energy Studies, Dehradun",248007,www.upes.ac.in,0,1,0,0,0,1,1,4,1,0,0,0,5,1,2003.0,1,1,0,0,409,358,53,6
409,409,397,"Plot #2,  Rajiv Gandhi Education City  Post Office Rai",,,,,76,,,ASHOKA UNIVERSITY,131029,,0,1,0,0,1,0,1,2,0,0,1,1,6,1,2014.0,1,1,0,0,410,687,24,28
410,410,398,Palkalai Nagar,Madurai,528.0,Madurai,866455.0,623,9.560001,78.000001,"Madurai Kamraj University, Madurai",625021,www.mkuniversity.org,1,1,1,0,0,1,0,8,1,0,1,0,33,1,1965.0,1,1,0,0,411,1987,25,79
411,411,400,"Barjala, Jirania, P.O. TEC,",,365.6,Agartala,258020.485,289,23.58001,91.25001,"National Institute of Technology, Agartala",799046,www.nitagartala.in,0,1,0,1,1,1,1,5,0,1,1,1,16,1,1965.0,1,1,0,0,412,431,52,8
412,412,401,Saveetha Nagar,Thandaam,,Chennai,,602,,,"Saveetha University, Chennai",602105,www.saveetha.com,1,0,0,0,0,1,0,0,0,0,0,0,33,0,1992.0,1,1,0,0,413,1431,47,30
413,413,402,Futala Lake Road,,73.375,Nagpur,1500.0,505,21.1458004,79.0881546,"Maharashtra Animal & Fishery Sciences University, Nagpur",440001,www.mafsu.in,0,0,0,0,0,0,0,0,0,0,0,1,27,0,2000.0,1,1,0,0,414,274,40,6
414,414,403,NAVALURKUTTAPATTU,SRIRANGAM TALUK,25.0,TIRUCHIRAPPALLI,17227.72,614,10.746081,78.59994300000002,TAMIL NADU NATIONAL LAW SCHOOL,620009,www.tnnls.in,1,0,0,1,0,0,0,2,0,1,0,1,33,1,2012.0,1,1,0,0,415,741,53,13
415,415,404,Administrative Block,Utkal University Campus,398.276,Bhubaneswar,280.31,386,,,"Utkal University, Bhubaneswar",751004,www.utkal-university.org,1,1,1,1,1,0,0,12,0,0,1,0,21,1,1943.0,1,1,0,0,416,2216,56,39
416,416,405,Admn.Office: Dr YSR Bhavan,Tirupati,2.1,Tirupati,6400.0,554,13.62789,79.41939,"Sri Venkateswara Veterinary University, Tirupathi",517502,www.svvu.edu.in,0,0,0,0,0,1,0,0,0,0,0,1,28,0,2005.0,1,1,0,0,417,2710,49,55
417,417,406,Melakottaiyur Post,Vandalur,125.0,Chennai 600127,25000.0,604,12.8122225,80.128901,"Tamilnadu Physical Education and Sports University, Chennai",600127,wwww.tnpesu.org,1,0,1,1,0,0,0,2,1,0,1,1,33,1,2004.0,1,1,0,0,418,1633,39,41
418,418,407,Malkapoor Road,Karimnagar,200.0,Karimnagar,3642.18,534,18.455063,79.0962228,"Satavahana University, Karimnagar",505001,www.satavahana.ac.in,1,1,0,0,0,0,0,3,0,0,1,0,36,1,2008.0,1,1,0,0,419,609,58,10
419,419,408,University Building,Palayam,159.85,Thiruvananthapuram,119692.0,601,,,"Kerala University, Thiruvananthapuram",695034,www.keralauniversity.ac.in,1,0,1,0,0,1,1,7,1,0,1,0,32,1,1937.0,1,1,0,0,420,292,20,14
420,420,409,Sankar Madhab Path,"Gandhi Nagar, Panikhaiti",50.0,Guwahati,42000.0,322,26.201578,91.861347,ASSAM DOWN TOWN UNIVERSITY,781026,www.adtu.in,0,1,0,0,0,0,1,4,1,0,0,0,18,1,1010.0,1,1,0,0,421,2537,31,81
421,421,410,"Kerala Veterinary and Animal Sciences University, Pookode",Lakkidi. P. O.,1000.0,,,590,,,"Kerala Veterinary & Animal Science University, Wayanad",673576,www.kvasu.ac.in,0,1,0,1,0,0,0,10,0,0,0,1,32,1,2010.0,1,1,0,0,422,2737,34,80
422,422,411,Dr Babasaheb Ambedkar Technological University Lonere,Lonere,469.0,Lonere,75357.0,520,18.168423,73.336507,"Dr. Babasaheb Ambedkar Technological University, Lonere",402103,www.dbatu.ac.in,1,0,0,1,0,1,0,5,0,0,0,1,27,1,1989.0,1,1,0,0,423,1401,64,21
423,423,412,Shoghi-Mehli By Pass Road,Lower Panthaghati,44.0,Shimla,,33,31.0886523,77.1797796,APG (ALAKH PRAKASH GOYAL) SHIMLA UNIVERSITY,171013,agu.edu.in,0,1,0,0,0,1,1,3,0,0,1,0,2,1,2012.0,1,1,0,0,424,354,16,22
424,424,413,Govandi Station Road,Deonar,5.3,Mumbai,12000.0,519,19.033334,72.900001,"International Institute for Population Sciences, Mumbai",400088,www.iipsindia.org,0,1,0,0,0,0,0,2,0,0,1,0,27,1,1956.0,1,1,0,0,425,1288,36,35
425,425,414,"Mekal Sadan , Kapil Dhara Road","Mekal Sadan , Kapil Dhara Road",371.0,"Amarkantak,",7810.0,461,,,"Indira Gandhi National Tribal University, Amarkantak",484887,www.igntu.ac.in,1,1,0,1,0,0,0,4,0,0,1,0,23,1,2008.0,1,1,0,0,426,1570,47,33
426,426,415,Katpadi-Thiruvalam Road,,366.0,Vellore,529130.0,605,12.879417,79.122462,"Vellore Institute of Technology, Vellore",632014,www.vit.ac.in,0,1,1,0,0,1,1,20,0,0,1,0,33,1,1984.0,1,1,0,0,427,2844,74,38
427,427,416,"Baba Saheb Ambedkar Road, Jammu",,118.0,Jammu,105500.0,21,,,"University of Jammu, Jammu Tawi",180006,www.jammuuniversity.in,1,0,0,0,0,1,0,7,1,0,1,0,1,1,1969.0,1,1,0,0,428,407,40,10
428,428,417,"Punjab Technical University, Jalandhar-Kapurthala Highway",Near Pushpa Gujral Science City,78.16,Kapurthala-144601,29395.0,36,,,"I K Gujral Punjab Technical University, Jalandhar",144601,www.ptu.ac.in,0,0,1,0,0,0,0,2,1,0,1,1,3,1,1997.0,1,1,0,0,429,1993,38,52
429,429,418,"NIFT Campus, Near Gulmohar Park",Hauz Khas,3.8,New Delhi,13819.0,98,28.37001,77.10001,"National Institute of Fashion Technology, Hauz Khas",110016,www.nift.ac.in,0,0,0,0,0,0,0,0,0,0,0,1,7,0,1986.0,1,1,0,0,430,2655,65,40
430,430,419,Mhasrul,"Vani  Road, Nashik",51.23,Nashik- 422 004,19840.55,516,20.12345,73.12345,"Maharashtra University of Health Sciences, Nashik",422004,www.muhs.ac.in,1,0,0,0,0,0,0,0,0,0,0,1,27,0,1998.0,1,1,0,0,431,2303,19,121
431,431,420,Sitapur-Hardoi Bypass Road,,28.0,Lucknow,,157,26.9280001,80.896001,KHWAJA MOINUDDIN CHISHTI URDU ARABI FARSI UNIVERSITY,226013,www.uafulucknow.ac.in,1,0,0,1,0,0,0,0,0,1,1,1,9,0,2009.0,1,1,0,0,432,376,73,5
432,432,421,Vill.: Manth (Kharora),Tehsil: Tilda,53.0,Raipur,9750.0,410,21.396356,81.892399,"AMITY UNIVERSITY, RAIPUR",493225,www.amity.edu,1,1,0,0,0,0,0,2,0,0,0,0,22,1,2014.0,1,1,0,0,433,2965,75,39
433,433,422,Zoram Villa  Bomfylde Road,Opposite St Anthony s College,,Shillong,,298,,,"William Carey University, Shillong",793001,www.wcu.co.in,1,1,0,0,0,0,0,0,0,0,0,0,17,0,2005.0,1,1,0,0,434,525,44,11
434,434,423,"A/P : Loni BK, Tal. Rahata,",Dist. Ahmednagar,10.0,Loni,55591.74,522,19.344368,74.271555,"Pravara Institute of Medical Sciences, Ahmednagar",413736,www.pravara.com,0,1,0,1,0,1,0,9,0,1,1,1,27,1,2003.0,1,1,0,0,435,2284,58,39
435,435,424,Kerala University of Health Sciences,Medical college PO,65.0,Thrissur,13750.0,594,10.609901,76.194801,KERALA UNIVERSITY OF HEALTH AND ALLIED SCIENCES,680596,http://kuhs.ac.in,0,0,0,0,0,0,0,0,0,0,0,1,32,0,2010.0,1,1,0,0,436,2579,42,61
436,436,425,G.E. Road,,80.0,Raipur,62060.0,410,,,"National Institute of Technology, Raipur",492010,nitrr.ac.in,0,1,1,1,0,0,1,10,0,0,1,1,22,1,1956.0,1,1,0,0,437,2078,55,37
437,437,426,DAIZAR,"MATHANIA ROAD, OPP. GRAMIN POLICE LINE",6.71487603,JODHPUR,9058.046396,113,26.395982,73.064276,"SARDAR PATEL UNIVERSITY OF POLICE, SECURITY AND CRIMINAL JUSTICE",342304,www.policeuniversity.ac.in,0,1,0,0,0,0,0,7,0,1,1,1,8,1,2012.0,1,1,0,0,438,1370,26,52
438,438,427,Post - Uparwara,Naya Raipur - 492 002 (Chhattisgarh),65.0,Raipur,89800.0,410,21.1062616,81.75819279999997,"Hidayatullah National Law University, Raipur",492002,www.hnlu.ac.in,0,1,0,1,0,0,0,5,0,0,1,1,22,1,2003.0,1,1,0,0,439,1443,31,46
439,439,428,"566/6, Bell Road",Clement Town,23.977562,Dehradun,80181.507,60,30.316495,78.03219200000002,"Graphic Era University, Dehradun",248002,www.geu.ac.in,1,0,0,0,1,1,1,9,0,0,0,0,5,1,1997.0,1,1,0,0,440,1078,35,30
440,440,429,VIVEKANANDA STREET,,20.0,COOCH BEHAR,,342,26.3215177,89.46992209999998,COOCH BEHAR PANCHANAN BARMA UNIVERSITY,736101,www.cbpbu.ac.in,0,1,0,0,0,0,0,0,0,0,0,0,19,0,2012.0,1,1,0,0,441,1278,73,17
441,441,430,"VILL-KAROUNDI, POST- BHAGWANPUR",TEHSIL - ROORKEE,11.23,,23003.84,68,29.938847,77.822192,MOTHERHOOD UNIVERSITY,247661,www.motherhooduniversity.edu.in,1,0,0,0,0,0,0,0,0,0,1,0,5,0,2015.0,1,1,0,0,442,2012,37,54
442,442,431,Director,National Institute of Technology,292.0,Kurukshetra,163885.39,72,29.96571,76.83700999999998,"National Institute of Technology, Kurukshetra",136119,www.nitkkr.ac.in,1,0,1,1,0,0,1,13,0,0,1,1,6,1,1963.0,1,1,0,0,443,548,71,7
443,443,432,NH-26 NARSHINGHPUR ROAD,SIRONJA,62.5,SAGAR,38981.0,427,23.81911,78.79978,SWAMI VIVEKANANDA UNIVERSITY,470228,www.svnuniversity.co.in,1,1,0,0,0,0,0,1,0,0,0,0,23,1,2011.0,1,1,0,0,444,2273,56,40
